{"type": "FeatureCollection", "features": [{"type": "Feature", "geometry": {"type": "Point", "coordinates": [-122.400083, 37.598385]}, "properties": {"permit_year": 2017, "permit_address": "Unidentified", "permit_units": 0, "permit_category": "Unidentified"}}, {"type": "Feature", "geometry": {"type": "Point", "coordinates": [-122.400083, 37.598385]}, "properties": {"permit_year": 2016, "permit_address": "Unidentified", "permit_units": 0, "permit_category": "Unidentified"}}, {"type": "Feature", "geometry": {"type": "Point", "coordinates": [-122.400083, 37.598385]}, "properties": {"permit_year": 2015, "permit_address": "Unidentified", "permit_units": 0, "permit_category": "Unidentified"}}, {"type": "Feature", "geometry": {"type": "Point", "coordinates": [-122.385752299729, 37.5976429997247]}, "properties": {"permit_year": 2014, "permit_address": "120 S. El Camino Real", "permit_units": 54, "permit_category": "5+"}}, {"type": "Feature", "geometry": {"type": "Point", "coordinates": [-122.400083, 37.598385]}, "properties": {"permit_year": 2014, "permit_address": "Unidentified", "permit_units": 2, "permit_category": "Unidentified"}}, {"type": "Feature", "geometry": {"type": "Point", "coordinates": [-122.410428, 37.607702]}, "properties": {"permit_year": 2019, "permit_address": "543 Barcelona Drive", "permit_units": 1, "permit_category": "ADU"}}, {"type": "Feature", "geometry": {"type": "Point", "coordinates": [-122.420737, 37.598213]}, "properties": {"permit_year": 2019, "permit_address": "1045 Sycamore", "permit_units": 1, "permit_category": "ADU"}}, {"type": "Feature", "geometry": {"type": "Point", "coordinates": [-122.399317, 37.605467]}, "properties": {"permit_year": 2019, "permit_address": "1101 Magnolia Ave", "permit_units": 1, "permit_category": "ADU"}}, {"type": "Feature", "geometry": {"type": "Point", "coordinates": [-122.412309, 37.596754]}, "properties": {"permit_year": 2019, "permit_address": "1180 Tuolomne Ct", "permit_units": 1, "permit_category": "ADU"}}, {"type": "Feature", "geometry": {"type": "Point", "coordinates": [-122.400083, 37.598385]}, "properties": {"permit_year": 2019, "permit_address": "1312 Frontera", "permit_units": 1, "permit_category": "ADU"}}, {"type": "Feature", "geometry": {"type": "Point", "coordinates": [-122.398474, 37.593578]}, "properties": {"permit_year": 2019, "permit_address": "120 Minorca Way", "permit_units": 1, "permit_category": "ADU"}}, {"type": "Feature", "geometry": {"type": "Point", "coordinates": [-122.420564, 37.598096]}, "properties": {"permit_year": 2019, "permit_address": "1041 Sycamore", "permit_units": 1, "permit_category": "ADU"}}, {"type": "Feature", "geometry": {"type": "Point", "coordinates": [-122.406387, 37.605287]}, "properties": {"permit_year": 2019, "permit_address": "9 Cozzolino Dr.", "permit_units": 1, "permit_category": "ADU"}}, {"type": "Feature", "geometry": {"type": "Point", "coordinates": [-122.400083, 37.598385]}, "properties": {"permit_year": 2019, "permit_address": "1 Lewis", "permit_units": 1, "permit_category": "ADU"}}, {"type": "Feature", "geometry": {"type": "Point", "coordinates": [-122.417925, 37.597555]}, "properties": {"permit_year": 2019, "permit_address": "1000 Crestview", "permit_units": 1, "permit_category": "ADU"}}, {"type": "Feature", "geometry": {"type": "Point", "coordinates": [-122.392897, 37.58969]}, "properties": {"permit_year": 2019, "permit_address": "329 S Ashton", "permit_units": 1, "permit_category": "ADU"}}, {"type": "Feature", "geometry": {"type": "Point", "coordinates": [-122.396808, 37.585722]}, "properties": {"permit_year": 2019, "permit_address": "1245 Lasuen Ct", "permit_units": 1, "permit_category": "ADU"}}, {"type": "Feature", "geometry": {"type": "Point", "coordinates": [-122.400083, 37.598385]}, "properties": {"permit_year": 2019, "permit_address": "1360 Hillcrest ", "permit_units": 1, "permit_category": "ADU"}}, {"type": "Feature", "geometry": {"type": "Point", "coordinates": [-122.411407, 37.612337]}, "properties": {"permit_year": 2019, "permit_address": "423 Bayview", "permit_units": 1, "permit_category": "ADU"}}, {"type": "Feature", "geometry": {"type": "Point", "coordinates": [-122.400083, 37.598385]}, "properties": {"permit_year": 2019, "permit_address": "570 Hemlock", "permit_units": 1, "permit_category": "ADU"}}, {"type": "Feature", "geometry": {"type": "Point", "coordinates": [-122.400083, 37.598385]}, "properties": {"permit_year": 2019, "permit_address": "321 Hillcrest", "permit_units": 1, "permit_category": "ADU"}}, {"type": "Feature", "geometry": {"type": "Point", "coordinates": [-122.400083, 37.598385]}, "properties": {"permit_year": 2019, "permit_address": "1364 Madera ", "permit_units": 1, "permit_category": "ADU"}}, {"type": "Feature", "geometry": {"type": "Point", "coordinates": [-122.40256, 37.587864]}, "properties": {"permit_year": 2019, "permit_address": "1345 Murchison", "permit_units": 1, "permit_category": "ADU"}}]}