{"type": "FeatureCollection", "features": [{"type": "Feature", "geometry": {"type": "Point", "coordinates": [-122.487455333996, 37.6562331799174]}, "properties": {"permit_year": 2017, "permit_address": "325 BEAUMONT ST", "permit_units": 1, "permit_category": "SF"}}, {"type": "Feature", "geometry": {"type": "Point", "coordinates": [-122.509518284841, 37.5934672667011]}, "properties": {"permit_year": 2017, "permit_address": "1375 LIVINGSTON", "permit_units": 1, "permit_category": "SF"}}, {"type": "Feature", "geometry": {"type": "Point", "coordinates": [-122.480859222275, 37.6495707512892]}, "properties": {"permit_year": 2017, "permit_address": "425 Norfolk", "permit_units": 2, "permit_category": "2 to 4"}}, {"type": "Feature", "geometry": {"type": "Point", "coordinates": [-122.494279933772, 37.582636504671]}, "properties": {"permit_year": 2017, "permit_address": "1693 HIGGINS WAY", "permit_units": 1, "permit_category": "SF"}}, {"type": "Feature", "geometry": {"type": "Point", "coordinates": [-122.462988649107, 37.5954913411525]}, "properties": {"permit_year": 2017, "permit_address": "1308 ODDSTAD BLVD", "permit_units": 1, "permit_category": "SU"}}, {"type": "Feature", "geometry": {"type": "Point", "coordinates": [-122.474487506693, 37.6463733808269]}, "properties": {"permit_year": 2017, "permit_address": "555 HEATHCLIFF DR", "permit_units": 1, "permit_category": "SU"}}, {"type": "Feature", "geometry": {"type": "Point", "coordinates": [-122.491734715685, 37.5951559102172]}, "properties": {"permit_year": 2017, "permit_address": "924 CORONA DR", "permit_units": 1, "permit_category": "SU"}}, {"type": "Feature", "geometry": {"type": "Point", "coordinates": [-122.485783645399, 37.5942507839466]}, "properties": {"permit_year": 2017, "permit_address": "1023 ZAMORA DR", "permit_units": 1, "permit_category": "SU"}}, {"type": "Feature", "geometry": {"type": "Point", "coordinates": [-122.48615840009, 37.6361331001625]}, "properties": {"permit_year": 2016, "permit_address": "366 Carmel Ave", "permit_units": 1, "permit_category": "SF"}}, {"type": "Feature", "geometry": {"type": "Point", "coordinates": [-122.488474569845, 37.5859950831066]}, "properties": {"permit_year": 2016, "permit_address": "1288 Sheila Lane", "permit_units": 1, "permit_category": "SF"}}, {"type": "Feature", "geometry": {"type": "Point", "coordinates": [-122.48929854759, 37.5866130684384]}, "properties": {"permit_year": 2016, "permit_address": "35 Malavear", "permit_units": 1, "permit_category": "SF"}}, {"type": "Feature", "geometry": {"type": "Point", "coordinates": [-122.493766205046, 37.6328998017845]}, "properties": {"permit_year": 2016, "permit_address": "15 Montectio Ave", "permit_units": 2, "permit_category": "2 to 4"}}, {"type": "Feature", "geometry": {"type": "Point", "coordinates": [-122.493551185239, 37.6329378017382]}, "properties": {"permit_year": 2016, "permit_address": "29 Montecito Ave", "permit_units": 3, "permit_category": "2 to 4"}}, {"type": "Feature", "geometry": {"type": "Point", "coordinates": [-122.483857300274, 37.6309945997211]}, "properties": {"permit_year": 2016, "permit_address": "527 Brighton Road", "permit_units": 1, "permit_category": "SF"}}, {"type": "Feature", "geometry": {"type": "Point", "coordinates": [-122.483910700219, 37.6309894996657]}, "properties": {"permit_year": 2016, "permit_address": "521 Brighton Road", "permit_units": 1, "permit_category": "SF"}}, {"type": "Feature", "geometry": {"type": "Point", "coordinates": [-122.489152668561, 37.5863271083094]}, "properties": {"permit_year": 2016, "permit_address": "21 Malavear", "permit_units": 1, "permit_category": "SF"}}, {"type": "Feature", "geometry": {"type": "Point", "coordinates": [-122.489152668561, 37.5863271083094]}, "properties": {"permit_year": 2016, "permit_address": "21 Malavear", "permit_units": 1, "permit_category": "SU"}}, {"type": "Feature", "geometry": {"type": "Point", "coordinates": [-122.485942569094, 37.6560992555762]}, "properties": {"permit_year": 2016, "permit_address": "323 Farallon", "permit_units": 1, "permit_category": "SF"}}, {"type": "Feature", "geometry": {"type": "Point", "coordinates": [-122.48803364124, 37.6040671295944]}, "properties": {"permit_year": 2015, "permit_address": "753 Rockaway Beach", "permit_units": 1, "permit_category": "SF"}}, {"type": "Feature", "geometry": {"type": "Point", "coordinates": [-122.493813456326, 37.6331873393243]}, "properties": {"permit_year": 2015, "permit_address": "10 Santa Rosa", "permit_units": 1, "permit_category": "SU"}}, {"type": "Feature", "geometry": {"type": "Point", "coordinates": [-122.493744084422, 37.6331928548664]}, "properties": {"permit_year": 2015, "permit_address": "16 Santa Rosa", "permit_units": 1, "permit_category": "SU"}}, {"type": "Feature", "geometry": {"type": "Point", "coordinates": [-122.493643720082, 37.6331868743748]}, "properties": {"permit_year": 2015, "permit_address": "20 Santa Rosa", "permit_units": 1, "permit_category": "SU"}}, {"type": "Feature", "geometry": {"type": "Point", "coordinates": [-122.493574349077, 37.6331923890176]}, "properties": {"permit_year": 2015, "permit_address": "26 Santa Rosa", "permit_units": 1, "permit_category": "SU"}}, {"type": "Feature", "geometry": {"type": "Point", "coordinates": [-122.493098240791, 37.5987284382668]}, "properties": {"permit_year": 2015, "permit_address": "650 Corona", "permit_units": 1, "permit_category": "SF"}}, {"type": "Feature", "geometry": {"type": "Point", "coordinates": [-122.495827944004, 37.5871403301622]}, "properties": {"permit_year": 2015, "permit_address": "1400 Adobe", "permit_units": 1, "permit_category": "SF"}}, {"type": "Feature", "geometry": {"type": "Point", "coordinates": [-122.472824476768, 37.587846082131]}, "properties": {"permit_year": 2015, "permit_address": "1139 Park Pacifica Avenue", "permit_units": 1, "permit_category": "SU"}}, {"type": "Feature", "geometry": {"type": "Point", "coordinates": [-122.484351, 37.589087]}, "properties": {"permit_year": 2018, "permit_address": "1028 Manzanita Dr.", "permit_units": 1, "permit_category": "ADU"}}, {"type": "Feature", "geometry": {"type": "Point", "coordinates": [-122.48179, 37.613741]}, "properties": {"permit_year": 2018, "permit_address": "191 Winona Ave.", "permit_units": 1, "permit_category": "SFD"}}, {"type": "Feature", "geometry": {"type": "Point", "coordinates": [-122.489887, 37.5947]}, "properties": {"permit_year": 2018, "permit_address": "995 Serena", "permit_units": 1, "permit_category": "ADU"}}, {"type": "Feature", "geometry": {"type": "Point", "coordinates": [-122.485571, 37.649419]}, "properties": {"permit_year": 2018, "permit_address": "424 Vista Mar Ave.", "permit_units": 1, "permit_category": "ADU"}}, {"type": "Feature", "geometry": {"type": "Point", "coordinates": [-122.483748, 37.654037]}, "properties": {"permit_year": 2018, "permit_address": "451 Farallon Ave.", "permit_units": 1, "permit_category": "ADU"}}, {"type": "Feature", "geometry": {"type": "Point", "coordinates": [-122.474243, 37.647492]}, "properties": {"permit_year": 2018, "permit_address": "531 Inverness Dr.", "permit_units": 1, "permit_category": "ADU"}}, {"type": "Feature", "geometry": {"type": "Point", "coordinates": [-122.508431, 37.594234]}, "properties": {"permit_year": 2018, "permit_address": "510 San Pedro", "permit_units": 1, "permit_category": "SFD"}}, {"type": "Feature", "geometry": {"type": "Point", "coordinates": [-122.504946, 37.592246]}, "properties": {"permit_year": 2018, "permit_address": "881 San Pedro Terrace Rd.", "permit_units": 1, "permit_category": "SFD"}}, {"type": "Feature", "geometry": {"type": "Point", "coordinates": [-122.488267, 37.629736]}, "properties": {"permit_year": 2018, "permit_address": "340 Charing Cross", "permit_units": 1, "permit_category": "SFD"}}, {"type": "Feature", "geometry": {"type": "Point", "coordinates": [-122.487885, 37.655684]}, "properties": {"permit_year": 2018, "permit_address": "300 Coral Ridge Dr.", "permit_units": 1, "permit_category": "SFD"}}, {"type": "Feature", "geometry": {"type": "Point", "coordinates": [-122.482243, 37.650781]}, "properties": {"permit_year": 2018, "permit_address": "478 Monterey Rd.", "permit_units": 1, "permit_category": "SFD"}}, {"type": "Feature", "geometry": {"type": "Point", "coordinates": [-122.504946, 37.592246]}, "properties": {"permit_year": 2018, "permit_address": "883 San Pedro Terrace Rd.", "permit_units": 1, "permit_category": "SFD"}}, {"type": "Feature", "geometry": {"type": "Point", "coordinates": [-122.504946, 37.592246]}, "properties": {"permit_year": 2018, "permit_address": "889 San Pedro Terrace Rd.", "permit_units": 2, "permit_category": "SFA"}}, {"type": "Feature", "geometry": {"type": "Point", "coordinates": [-122.492176, 37.636996]}, "properties": {"permit_year": 2018, "permit_address": "104 Bella Vista", "permit_units": 1, "permit_category": "SFD"}}, {"type": "Feature", "geometry": {"type": "Point", "coordinates": [-122.504946, 37.592246]}, "properties": {"permit_year": 2018, "permit_address": "885 San Pedro Terrace Rd.", "permit_units": 1, "permit_category": "SFD"}}, {"type": "Feature", "geometry": {"type": "Point", "coordinates": [-122.504946, 37.592246]}, "properties": {"permit_year": 2018, "permit_address": "887 San Pedro Terrace Rd.", "permit_units": 1, "permit_category": "SFD"}}, {"type": "Feature", "geometry": {"type": "Point", "coordinates": [-122.504946, 37.592246]}, "properties": {"permit_year": 2018, "permit_address": "899 San Pedro Terrace Rd.", "permit_units": 1, "permit_category": "SFD"}}, {"type": "Feature", "geometry": {"type": "Point", "coordinates": [-122.509338, 37.595925]}, "properties": {"permit_year": 2018, "permit_address": "263 Kent Rd.", "permit_units": 1, "permit_category": "SFD"}}, {"type": "Feature", "geometry": {"type": "Point", "coordinates": [-122.508284, 37.59419]}, "properties": {"permit_year": 2018, "permit_address": "535 San Pedro Ave.", "permit_units": 4, "permit_category": "2 to 4"}}, {"type": "Feature", "geometry": {"type": "Point", "coordinates": [-122.470245, 37.591773]}, "properties": {"permit_year": 2018, "permit_address": "83 Kathleen Ct.", "permit_units": 1, "permit_category": "ADU"}}, {"type": "Feature", "geometry": {"type": "Point", "coordinates": [-122.463651, 37.594801]}, "properties": {"permit_year": 2018, "permit_address": "1250 Oddstad Blvd.", "permit_units": 1, "permit_category": "ADU"}}, {"type": "Feature", "geometry": {"type": "Point", "coordinates": [-122.480531, 37.579816]}, "properties": {"permit_year": 2018, "permit_address": "1512 Valdez Way", "permit_units": 1, "permit_category": "ADU"}}, {"type": "Feature", "geometry": {"type": "Point", "coordinates": [-122.480015, 37.616774]}, "properties": {"permit_year": 2019, "permit_address": "170 Winona", "permit_units": 1, "permit_category": "SFD"}}, {"type": "Feature", "geometry": {"type": "Point", "coordinates": [-122.48453, 37.587033]}, "properties": {"permit_year": 2019, "permit_address": "1120 Sheila", "permit_units": 1, "permit_category": "SFD"}}, {"type": "Feature", "geometry": {"type": "Point", "coordinates": [-122.209062, 37.361013]}, "properties": {"permit_year": 2019, "permit_address": "21 Ohlone Ct", "permit_units": 1, "permit_category": "SFD"}}, {"type": "Feature", "geometry": {"type": "Point", "coordinates": [-122.480015, 37.616774]}, "properties": {"permit_year": 2019, "permit_address": "40 Eastlake", "permit_units": 1, "permit_category": "ADU"}}, {"type": "Feature", "geometry": {"type": "Point", "coordinates": [-122.48553, 37.63086]}, "properties": {"permit_year": 2019, "permit_address": "425 Brighton", "permit_units": 1, "permit_category": "ADU"}}, {"type": "Feature", "geometry": {"type": "Point", "coordinates": [-122.488934, 37.582459]}, "properties": {"permit_year": 2019, "permit_address": "1243 Galvez", "permit_units": 1, "permit_category": "ADU"}}, {"type": "Feature", "geometry": {"type": "Point", "coordinates": [-122.473117, 37.585892]}, "properties": {"permit_year": 2019, "permit_address": "25 Point Reyes", "permit_units": 1, "permit_category": "ADU"}}, {"type": "Feature", "geometry": {"type": "Point", "coordinates": [-122.487291, 37.603228]}, "properties": {"permit_year": 2019, "permit_address": "780 Rockaway Beach", "permit_units": 1, "permit_category": "ADU"}}, {"type": "Feature", "geometry": {"type": "Point", "coordinates": [-122.480015, 37.616774]}, "properties": {"permit_year": 2019, "permit_address": "407 Fremont", "permit_units": 1, "permit_category": "ADU"}}, {"type": "Feature", "geometry": {"type": "Point", "coordinates": [-122.480015, 37.616774]}, "properties": {"permit_year": 2019, "permit_address": "427 Manor", "permit_units": 1, "permit_category": "ADU"}}, {"type": "Feature", "geometry": {"type": "Point", "coordinates": [-122.480024, 37.585024]}, "properties": {"permit_year": 2019, "permit_address": "1165 Manzanita", "permit_units": 1, "permit_category": "ADU"}}, {"type": "Feature", "geometry": {"type": "Point", "coordinates": [-122.480015, 37.616774]}, "properties": {"permit_year": 2019, "permit_address": "340 Farallon", "permit_units": 1, "permit_category": "ADU"}}, {"type": "Feature", "geometry": {"type": "Point", "coordinates": [-122.482093, 37.592702]}, "properties": {"permit_year": 2019, "permit_address": "1340 Crespi", "permit_units": 1, "permit_category": "ADU"}}, {"type": "Feature", "geometry": {"type": "Point", "coordinates": [-122.486061, 37.64569]}, "properties": {"permit_year": 2019, "permit_address": "311 Milagra", "permit_units": 1, "permit_category": "ADU"}}, {"type": "Feature", "geometry": {"type": "Point", "coordinates": [-122.47486, 37.647505]}, "properties": {"permit_year": 2019, "permit_address": "524 Inverness", "permit_units": 1, "permit_category": "ADU"}}, {"type": "Feature", "geometry": {"type": "Point", "coordinates": [-122.491625, 37.637001]}, "properties": {"permit_year": 2018, "permit_address": "106 Bella Vista", "permit_units": 1, "permit_category": "2 to 4"}}, {"type": "Feature", "geometry": {"type": "Point", "coordinates": [-122.474243, 37.647492]}, "properties": {"permit_year": 2018, "permit_address": "531 Inverness", "permit_units": 1, "permit_category": "ADU"}}, {"type": "Feature", "geometry": {"type": "Point", "coordinates": [-122.508431, 37.594234]}, "properties": {"permit_year": 2018, "permit_address": "510 San Pedro", "permit_units": 1, "permit_category": "SFD"}}, {"type": "Feature", "geometry": {"type": "Point", "coordinates": [-122.480015, 37.616774]}, "properties": {"permit_year": 2018, "permit_address": "881 San Pedro Terrace", "permit_units": 1, "permit_category": "SFD"}}, {"type": "Feature", "geometry": {"type": "Point", "coordinates": [-122.487885, 37.655684]}, "properties": {"permit_year": 2018, "permit_address": "300 Coral Ridge", "permit_units": 1, "permit_category": "SFD"}}, {"type": "Feature", "geometry": {"type": "Point", "coordinates": [-122.482243, 37.650781]}, "properties": {"permit_year": 2018, "permit_address": "478 Monterey", "permit_units": 1, "permit_category": "SFD"}}, {"type": "Feature", "geometry": {"type": "Point", "coordinates": [-122.504946, 37.592246]}, "properties": {"permit_year": 2018, "permit_address": "883 San Pedro Terrace Rd", "permit_units": 1, "permit_category": "SFD"}}, {"type": "Feature", "geometry": {"type": "Point", "coordinates": [-122.504946, 37.592246]}, "properties": {"permit_year": 2018, "permit_address": "889 San Pedro Terrace Rd", "permit_units": 1, "permit_category": "SFA"}}, {"type": "Feature", "geometry": {"type": "Point", "coordinates": [-122.504946, 37.592246]}, "properties": {"permit_year": 2018, "permit_address": "885 San Pedro Terrace Rd", "permit_units": 1, "permit_category": "SFD"}}, {"type": "Feature", "geometry": {"type": "Point", "coordinates": [-122.504946, 37.592246]}, "properties": {"permit_year": 2018, "permit_address": "887 San Pedro Terrace Rd", "permit_units": 1, "permit_category": "SFD"}}, {"type": "Feature", "geometry": {"type": "Point", "coordinates": [-122.504946, 37.592246]}, "properties": {"permit_year": 2018, "permit_address": "899 San Pedro Terrace Rd", "permit_units": 1, "permit_category": "SFD"}}, {"type": "Feature", "geometry": {"type": "Point", "coordinates": [-122.508284, 37.59419]}, "properties": {"permit_year": 2018, "permit_address": "535 San Pedro Ave", "permit_units": 1, "permit_category": "2 to 4"}}, {"type": "Feature", "geometry": {"type": "Point", "coordinates": [-122.480015, 37.616774]}, "properties": {"permit_year": 2018, "permit_address": "1512 Valdez", "permit_units": 1, "permit_category": "ADU"}}]}