{
  "type": "FeatureCollection",
  "features": [
    {
      "type": "Feature",
      "geometry": {
        "type": "Point",
        "coordinates": [
          -122.181388721213,
          37.4519695529526
        ]
      },
      "properties": {
        "permit_year": 2017,
        "permit_address": "650 Live Oak Ave.",
        "permit_units": 15,
        "permit_category": "5+"
      }
    },
    {
      "type": "Feature",
      "geometry": {
        "type": "Point",
        "coordinates": [
          -122.152036885694,
          37.4644921016292
        ]
      },
      "properties": {
        "permit_year": 2017,
        "permit_address": "112 Durham St.",
        "permit_units": 1,
        "permit_category": "SU"
      }
    },
    {
      "type": "Feature",
      "geometry": {
        "type": "Point",
        "coordinates": [
          -122.164140355693,
          37.4582436687104
        ]
      },
      "properties": {
        "permit_year": 2017,
        "permit_address": "247 Santa Margarita Ave.",
        "permit_units": 1,
        "permit_category": "SU"
      }
    },
    {
      "type": "Feature",
      "geometry": {
        "type": "Point",
        "coordinates": [
          -122.156060905786,
          37.4718294058025
        ]
      },
      "properties": {
        "permit_year": 2017,
        "permit_address": "1134 Carlton Ave.",
        "permit_units": 1,
        "permit_category": "SU"
      }
    },
    {
      "type": "Feature",
      "geometry": {
        "type": "Point",
        "coordinates": [
          -122.155843870598,
          37.4735675677891
        ]
      },
      "properties": {
        "permit_year": 2017,
        "permit_address": "1207 Carlton Ave.",
        "permit_units": 1,
        "permit_category": "SU"
      }
    },
    {
      "type": "Feature",
      "geometry": {
        "type": "Point",
        "coordinates": [
          -122.164492310771,
          37.4735273842814
        ]
      },
      "properties": {
        "permit_year": 2017,
        "permit_address": "1057 Menlo Oaks Dr.",
        "permit_units": 1,
        "permit_category": "SU"
      }
    },
    {
      "type": "Feature",
      "geometry": {
        "type": "Point",
        "coordinates": [
          -122.162029115351,
          37.4790160087819
        ]
      },
      "properties": {
        "permit_year": 2017,
        "permit_address": "351 Terminal Ave.",
        "permit_units": 1,
        "permit_category": "SU"
      }
    },
    {
      "type": "Feature",
      "geometry": {
        "type": "Point",
        "coordinates": [
          -122.193240402622,
          37.4213724073108
        ]
      },
      "properties": {
        "permit_year": 2017,
        "permit_address": "24 Campbell Ln.",
        "permit_units": 1,
        "permit_category": "SU"
      }
    },
    {
      "type": "Feature",
      "geometry": {
        "type": "Point",
        "coordinates": [
          -122.19663949102,
          37.431793941837
        ]
      },
      "properties": {
        "permit_year": 2017,
        "permit_address": "2003 Santa Cruz Ave.",
        "permit_units": 1,
        "permit_category": "SU"
      }
    },
    {
      "type": "Feature",
      "geometry": {
        "type": "Point",
        "coordinates": [
          -122.156759967698,
          37.4787947063107
        ]
      },
      "properties": {
        "permit_year": 2017,
        "permit_address": "1376 Windermere Ave.",
        "permit_units": 1,
        "permit_category": "SU"
      }
    },
    {
      "type": "Feature",
      "geometry": {
        "type": "Point",
        "coordinates": [
          -122.181376285387,
          37.44488184662
        ]
      },
      "properties": {
        "permit_year": 2017,
        "permit_address": "1019 Middle Ave.",
        "permit_units": 1,
        "permit_category": "SU"
      }
    },
    {
      "type": "Feature",
      "geometry": {
        "type": "Point",
        "coordinates": [
          -122.193558045867,
          37.4613251741175
        ]
      },
      "properties": {
        "permit_year": 2017,
        "permit_address": "195 Spruce Ave.",
        "permit_units": 1,
        "permit_category": "SU"
      }
    },
    {
      "type": "Feature",
      "geometry": {
        "type": "Point",
        "coordinates": [
          -122.177916767944,
          37.4434105566519
        ]
      },
      "properties": {
        "permit_year": 2017,
        "permit_address": "155 Yale Rd.",
        "permit_units": 1,
        "permit_category": "SU"
      }
    },
    {
      "type": "Feature",
      "geometry": {
        "type": "Point",
        "coordinates": [
          -122.183296024092,
          37.4474337466701
        ]
      },
      "properties": {
        "permit_year": 2017,
        "permit_address": "765 University Dr.",
        "permit_units": 3,
        "permit_category": "2 to 4"
      }
    },
    {
      "type": "Feature",
      "geometry": {
        "type": "Point",
        "coordinates": [
          -122.163381837802,
          37.4567043540227
        ]
      },
      "properties": {
        "permit_year": 2017,
        "permit_address": "193 Willow Rd.",
        "permit_units": 1,
        "permit_category": "SF"
      }
    },
    {
      "type": "Feature",
      "geometry": {
        "type": "Point",
        "coordinates": [
          -122.17641306641,
          37.4480643368997
        ]
      },
      "properties": {
        "permit_year": 2017,
        "permit_address": "674 Partridge Ave.",
        "permit_units": 1,
        "permit_category": "SF"
      }
    },
    {
      "type": "Feature",
      "geometry": {
        "type": "Point",
        "coordinates": [
          -122.175022608407,
          37.4460047841935
        ]
      },
      "properties": {
        "permit_year": 2017,
        "permit_address": "772 Harvard Ave.",
        "permit_units": 1,
        "permit_category": "SF"
      }
    },
    {
      "type": "Feature",
      "geometry": {
        "type": "Point",
        "coordinates": [
          -122.205207781814,
          37.4244407943073
        ]
      },
      "properties": {
        "permit_year": 2017,
        "permit_address": "777 Sharon Park Dr.",
        "permit_units": 1,
        "permit_category": "SF"
      }
    },
    {
      "type": "Feature",
      "geometry": {
        "type": "Point",
        "coordinates": [
          -122.18824028626,
          37.4383135005676
        ]
      },
      "properties": {
        "permit_year": 2017,
        "permit_address": "565 Hobart St.",
        "permit_units": 1,
        "permit_category": "SU"
      }
    },
    {
      "type": "Feature",
      "geometry": {
        "type": "Point",
        "coordinates": [
          -122.186691999936,
          37.4584728996047
        ]
      },
      "properties": {
        "permit_year": 2016,
        "permit_address": "1440 Mills Ct.",
        "permit_units": 1,
        "permit_category": "SU"
      }
    },
    {
      "type": "Feature",
      "geometry": {
        "type": "Point",
        "coordinates": [
          -122.156793900018,
          37.4544798000028
        ]
      },
      "properties": {
        "permit_year": 2016,
        "permit_address": "804 Woodland Ave.",
        "permit_units": 1,
        "permit_category": "SU"
      }
    },
    {
      "type": "Feature",
      "geometry": {
        "type": "Point",
        "coordinates": [
          -122.155475400369,
          37.4587159000188
        ]
      },
      "properties": {
        "permit_year": 2016,
        "permit_address": "321 Laurel Ave.",
        "permit_units": 1,
        "permit_category": "SU"
      }
    },
    {
      "type": "Feature",
      "geometry": {
        "type": "Point",
        "coordinates": [
          -122.188553699993,
          37.4379298003201
        ]
      },
      "properties": {
        "permit_year": 2016,
        "permit_address": "560 Olive St.",
        "permit_units": 1,
        "permit_category": "SU"
      }
    },
    {
      "type": "Feature",
      "geometry": {
        "type": "Point",
        "coordinates": [
          -122.185103299877,
          37.4444999998751
        ]
      },
      "properties": {
        "permit_year": 2016,
        "permit_address": "1121 Werth Ave.",
        "permit_units": 1,
        "permit_category": "SU"
      }
    },
    {
      "type": "Feature",
      "geometry": {
        "type": "Point",
        "coordinates": [
          -122.197751599856,
          37.4295695002323
        ]
      },
      "properties": {
        "permit_year": 2016,
        "permit_address": "2108 Clayton Dr.",
        "permit_units": 1,
        "permit_category": "SU"
      }
    },
    {
      "type": "Feature",
      "geometry": {
        "type": "Point",
        "coordinates": [
          -122.161118600343,
          37.4561737000562
        ]
      },
      "properties": {
        "permit_year": 2016,
        "permit_address": "220 Robin Wy.",
        "permit_units": 1,
        "permit_category": "SU"
      }
    },
    {
      "type": "Feature",
      "geometry": {
        "type": "Point",
        "coordinates": [
          -122.153891800366,
          37.4751234003247
        ]
      },
      "properties": {
        "permit_year": 2016,
        "permit_address": "1221 Willow Rd.",
        "permit_units": 42,
        "permit_category": "5+"
      }
    },
    {
      "type": "Feature",
      "geometry": {
        "type": "Point",
        "coordinates": [
          -122.177911200242,
          37.446063199657
        ]
      },
      "properties": {
        "permit_year": 2016,
        "permit_address": "860 Partridge Ave.",
        "permit_units": 1,
        "permit_category": "2 to 4"
      }
    },
    {
      "type": "Feature",
      "geometry": {
        "type": "Point",
        "coordinates": [
          -122.175619199766,
          37.4465852003468
        ]
      },
      "properties": {
        "permit_year": 2016,
        "permit_address": "763 Cambridge Ave.",
        "permit_units": 1,
        "permit_category": "2 to 4"
      }
    },
    {
      "type": "Feature",
      "geometry": {
        "type": "Point",
        "coordinates": [
          -122.186610599599,
          37.4550305996825
        ]
      },
      "properties": {
        "permit_year": 2016,
        "permit_address": "1283-1295 El Camino Real",
        "permit_units": 15,
        "permit_category": "5+"
      }
    },
    {
      "type": "Feature",
      "geometry": {
        "type": "Point",
        "coordinates": [
          -122.193368368955,
          37.4473052038721
        ]
      },
      "properties": {
        "permit_year": 2015,
        "permit_address": "1390 Garden Ln.",
        "permit_units": 1,
        "permit_category": "SU"
      }
    },
    {
      "type": "Feature",
      "geometry": {
        "type": "Point",
        "coordinates": [
          -122.152905523771,
          37.4667495852252
        ]
      },
      "properties": {
        "permit_year": 2015,
        "permit_address": "220 Haight St.",
        "permit_units": 1,
        "permit_category": "SU"
      }
    },
    {
      "type": "Feature",
      "geometry": {
        "type": "Point",
        "coordinates": [
          -122.188119141285,
          37.4415389649513
        ]
      },
      "properties": {
        "permit_year": 2015,
        "permit_address": "746 Hermosa Wy.",
        "permit_units": 1,
        "permit_category": "SU"
      }
    },
    {
      "type": "Feature",
      "geometry": {
        "type": "Point",
        "coordinates": [
          -122.148164452627,
          37.458824459881
        ]
      },
      "properties": {
        "permit_year": 2015,
        "permit_address": "331 Oak Ct.",
        "permit_units": 1,
        "permit_category": "SU"
      }
    },
    {
      "type": "Feature",
      "geometry": {
        "type": "Point",
        "coordinates": [
          -122.155564372098,
          37.4632351497824
        ]
      },
      "properties": {
        "permit_year": 2015,
        "permit_address": "323 O'Keefe St.",
        "permit_units": 1,
        "permit_category": "SU"
      }
    },
    {
      "type": "Feature",
      "geometry": {
        "type": "Point",
        "coordinates": [
          -122.15585804841,
          37.4619205082249
        ]
      },
      "properties": {
        "permit_year": 2015,
        "permit_address": "529 Pope St.",
        "permit_units": 1,
        "permit_category": "SU"
      }
    },
    {
      "type": "Feature",
      "geometry": {
        "type": "Point",
        "coordinates": [
          -122.199714550986,
          37.4291609067505
        ]
      },
      "properties": {
        "permit_year": 2015,
        "permit_address": "2161 Sharon Rd.",
        "permit_units": 1,
        "permit_category": "SU"
      }
    },
    {
      "type": "Feature",
      "geometry": {
        "type": "Point",
        "coordinates": [
          -122.146583505624,
          37.4575808368862
        ]
      },
      "properties": {
        "permit_year": 2015,
        "permit_address": "1475 Woodland Ave.",
        "permit_units": 1,
        "permit_category": "SU"
      }
    },
    {
      "type": "Feature",
      "geometry": {
        "type": "Point",
        "coordinates": [
          -122.154676936391,
          37.467185031564
        ]
      },
      "properties": {
        "permit_year": 2015,
        "permit_address": "325 Haight St.",
        "permit_units": 1,
        "permit_category": "2 to 4"
      }
    },
    {
      "type": "Feature",
      "geometry": {
        "type": "Point",
        "coordinates": [
          -122.185557641872,
          37.4342029935734
        ]
      },
      "properties": {
        "permit_year": 2015,
        "permit_address": "1652 Bay Laurel Dr.",
        "permit_units": 1,
        "permit_category": "SF"
      }
    },
    {
      "type": "Feature",
      "geometry": {
        "type": "Point",
        "coordinates": [
          -122.176870683735,
          37.4495304422762
        ]
      },
      "properties": {
        "permit_year": 2015,
        "permit_address": "612 College Ave.",
        "permit_units": 3,
        "permit_category": "5+"
      }
    },
    {
      "type": "Feature",
      "geometry": {
        "type": "Point",
        "coordinates": [
          -122.183725241727,
          37.485907002806
        ]
      },
      "properties": {
        "permit_year": 2015,
        "permit_address": "3639 Haven Ave.",
        "permit_units": 394,
        "permit_category": "5+"
      }
    },
    {
      "type": "Feature",
      "geometry": {
        "type": "Point",
        "coordinates": [
          -122.182060902389,
          37.4869030739178
        ]
      },
      "properties": {
        "permit_year": 2015,
        "permit_address": "3645 Haven Ave.",
        "permit_units": 146,
        "permit_category": "5+"
      }
    },
    {
      "type": "Feature",
      "geometry": {
        "type": "Point",
        "coordinates": [
          -122.154438523419,
          37.4797988929046
        ]
      },
      "properties": {
        "permit_year": 2015,
        "permit_address": "777 Hamilton Ave.",
        "permit_units": 195,
        "permit_category": "5+"
      }
    },
    {
      "type": "Feature",
      "geometry": {
        "type": "Point",
        "coordinates": [
          -122.186373,
          37.439616
        ]
      },
      "properties": {
        "permit_year": 2015,
        "permit_address": "unidentified",
        "permit_units": 0,
        "permit_category": "SU"
      }
    },
    {
      "type": "Feature",
      "geometry": {
        "type": "Point",
        "coordinates": [
          -122.159769011131,
          37.4628107228367
        ]
      },
      "properties": {
        "permit_year": 2014,
        "permit_address": "605 Willow Rd.",
        "permit_units": 60,
        "permit_category": "5+"
      }
    },
    {
      "type": "Feature",
      "geometry": {
        "type": "Point",
        "coordinates": [
          -122.16783900017,
          37.4512990004486
        ]
      },
      "properties": {
        "permit_year": 2014,
        "permit_address": "192 E. Creek Dr.",
        "permit_units": 1,
        "permit_category": "SU"
      }
    },
    {
      "type": "Feature",
      "geometry": {
        "type": "Point",
        "coordinates": [
          -122.179179999757,
          37.4467399997512
        ]
      },
      "properties": {
        "permit_year": 2014,
        "permit_address": "856 College Ave.",
        "permit_units": 1,
        "permit_category": "SU"
      }
    },
    {
      "type": "Feature",
      "geometry": {
        "type": "Point",
        "coordinates": [
          -122.192852000719,
          37.423317999726
        ]
      },
      "properties": {
        "permit_year": 2014,
        "permit_address": "2344 Branner Dr.",
        "permit_units": 1,
        "permit_category": "SU"
      }
    },
    {
      "type": "Feature",
      "geometry": {
        "type": "Point",
        "coordinates": [
          -122.148754701069,
          37.4578732001881
        ]
      },
      "properties": {
        "permit_year": 2014,
        "permit_address": "1359 Woodland Ave.",
        "permit_units": 1,
        "permit_category": "SF"
      }
    },
    {
      "type": "Feature",
      "geometry": {
        "type": "Point",
        "coordinates": [
          -122.146419456693,
          37.4609168126609
        ]
      },
      "properties": {
        "permit_year": 2014,
        "permit_address": "433 O'Connor St.",
        "permit_units": 1,
        "permit_category": "SF"
      }
    },
    {
      "type": "Feature",
      "geometry": {
        "type": "Point",
        "coordinates": [
          -122.186097572345,
          37.4340652731939
        ]
      },
      "properties": {
        "permit_year": 2014,
        "permit_address": "1691 Bay Laurel Dr.",
        "permit_units": 1,
        "permit_category": "SF"
      }
    },
    {
      "type": "Feature",
      "geometry": {
        "type": "Point",
        "coordinates": [
          -122.183834129841,
          37.4577307934414
        ]
      },
      "properties": {
        "permit_year": 2014,
        "permit_address": "1275 Laurel St.",
        "permit_units": 1,
        "permit_category": "SF"
      }
    },
    {
      "type": "Feature",
      "geometry": {
        "type": "Point",
        "coordinates": [
          -122.183900650894,
          37.4576440106626
        ]
      },
      "properties": {
        "permit_year": 2014,
        "permit_address": "1277 Laurel St.",
        "permit_units": 1,
        "permit_category": "SF"
      }
    },
    {
      "type": "Feature",
      "geometry": {
        "type": "Point",
        "coordinates": [
          -122.183964672731,
          37.457557211696
        ]
      },
      "properties": {
        "permit_year": 2014,
        "permit_address": "1279 Laurel St.",
        "permit_units": 1,
        "permit_category": "SF"
      }
    },
    {
      "type": "Feature",
      "geometry": {
        "type": "Point",
        "coordinates": [
          -122.184059882158,
          37.4578169520907
        ]
      },
      "properties": {
        "permit_year": 2014,
        "permit_address": "1283 Laurel St.",
        "permit_units": 1,
        "permit_category": "SF"
      }
    },
    {
      "type": "Feature",
      "geometry": {
        "type": "Point",
        "coordinates": [
          -122.186373,
          37.439616
        ]
      },
      "properties": {
        "permit_year": 2014,
        "permit_address": "unidentified",
        "permit_units": 0,
        "permit_category": "SU"
      }
    },
    {
      "type": "Feature",
      "geometry": {
        "type": "Point",
        "coordinates": [
          -122.151749,
          37.46546
        ]
      },
      "properties": {
        "permit_year": 2018,
        "permit_address": "112 Chester St",
        "permit_units": 1,
        "permit_category": "ADU"
      }
    },
    {
      "type": "Feature",
      "geometry": {
        "type": "Point",
        "coordinates": [
          -122.192328,
          37.444666
        ]
      },
      "properties": {
        "permit_year": 2018,
        "permit_address": "1180 May Brown Ave",
        "permit_units": 1,
        "permit_category": "ADU"
      }
    },
    {
      "type": "Feature",
      "geometry": {
        "type": "Point",
        "coordinates": [
          -122.182631,
          37.449414
        ]
      },
      "properties": {
        "permit_year": 2018,
        "permit_address": "797 Live Oak Ave",
        "permit_units": 1,
        "permit_category": "SFD"
      }
    },
    {
      "type": "Feature",
      "geometry": {
        "type": "Point",
        "coordinates": [
          -122.181725,
          37.44521
        ]
      },
      "properties": {
        "permit_year": 2018,
        "permit_address": "1002 Middle Ave",
        "permit_units": 1,
        "permit_category": "SFD"
      }
    },
    {
      "type": "Feature",
      "geometry": {
        "type": "Point",
        "coordinates": [
          -122.190111,
          37.459169
        ]
      },
      "properties": {
        "permit_year": 2018,
        "permit_address": "133 Encinal Ave",
        "permit_units": 4,
        "permit_category": "SFA"
      }
    },
    {
      "type": "Feature",
      "geometry": {
        "type": "Point",
        "coordinates": [
          -122.190111,
          37.459169
        ]
      },
      "properties": {
        "permit_year": 2018,
        "permit_address": "133 Encinal Ave",
        "permit_units": 5,
        "permit_category": "SFA"
      }
    },
    {
      "type": "Feature",
      "geometry": {
        "type": "Point",
        "coordinates": [
          -122.190111,
          37.459169
        ]
      },
      "properties": {
        "permit_year": 2018,
        "permit_address": "133 Encinal Ave",
        "permit_units": 5,
        "permit_category": "SFA"
      }
    },
    {
      "type": "Feature",
      "geometry": {
        "type": "Point",
        "coordinates": [
          -122.190111,
          37.459169
        ]
      },
      "properties": {
        "permit_year": 2018,
        "permit_address": "133 Encinal Ave",
        "permit_units": 3,
        "permit_category": "SFA"
      }
    },
    {
      "type": "Feature",
      "geometry": {
        "type": "Point",
        "coordinates": [
          -122.190111,
          37.459169
        ]
      },
      "properties": {
        "permit_year": 2018,
        "permit_address": "133 Encinal Ave",
        "permit_units": 2,
        "permit_category": "SFA"
      }
    },
    {
      "type": "Feature",
      "geometry": {
        "type": "Point",
        "coordinates": [
          -122.190111,
          37.459169
        ]
      },
      "properties": {
        "permit_year": 2018,
        "permit_address": "133 Encinal Ave",
        "permit_units": 3,
        "permit_category": "SFA"
      }
    },
    {
      "type": "Feature",
      "geometry": {
        "type": "Point",
        "coordinates": [
          -122.190111,
          37.459169
        ]
      },
      "properties": {
        "permit_year": 2018,
        "permit_address": "133 Encinal Ave",
        "permit_units": 2,
        "permit_category": "SFA"
      }
    },
    {
      "type": "Feature",
      "geometry": {
        "type": "Point",
        "coordinates": [
          -122.185559,
          37.454678
        ]
      },
      "properties": {
        "permit_year": 2018,
        "permit_address": "1275 El Camino Real",
        "permit_units": 3,
        "permit_category": "2 to 4"
      }
    },
    {
      "type": "Feature",
      "geometry": {
        "type": "Point",
        "coordinates": [
          -122.158005,
          37.471404
        ]
      },
      "properties": {
        "permit_year": 2018,
        "permit_address": "1107-A Madera Ave",
        "permit_units": 1,
        "permit_category": "ADU"
      }
    },
    {
      "type": "Feature",
      "geometry": {
        "type": "Point",
        "coordinates": [
          -122.156269,
          37.472663
        ]
      },
      "properties": {
        "permit_year": 2018,
        "permit_address": "1155-A Carlton Ave",
        "permit_units": 1,
        "permit_category": "ADU"
      }
    },
    {
      "type": "Feature",
      "geometry": {
        "type": "Point",
        "coordinates": [
          -122.154864,
          37.461232
        ]
      },
      "properties": {
        "permit_year": 2018,
        "permit_address": "517-A Laurel Ave",
        "permit_units": 1,
        "permit_category": "ADU"
      }
    },
    {
      "type": "Feature",
      "geometry": {
        "type": "Point",
        "coordinates": [
          -122.146796,
          37.458069
        ]
      },
      "properties": {
        "permit_year": 2018,
        "permit_address": "445-A Oak Ct",
        "permit_units": 1,
        "permit_category": "ADU"
      }
    },
    {
      "type": "Feature",
      "geometry": {
        "type": "Point",
        "coordinates": [
          -122.168773,
          37.449162
        ]
      },
      "properties": {
        "permit_year": 2018,
        "permit_address": "155 E Creek Dr",
        "permit_units": 1,
        "permit_category": "ADU"
      }
    },
    {
      "type": "Feature",
      "geometry": {
        "type": "Point",
        "coordinates": [
          -122.150812,
          37.459769
        ]
      },
      "properties": {
        "permit_year": 2018,
        "permit_address": "198 Elliott Dr",
        "permit_units": 1,
        "permit_category": "ADU"
      }
    },
    {
      "type": "Feature",
      "geometry": {
        "type": "Point",
        "coordinates": [
          -122.19931,
          37.429505
        ]
      },
      "properties": {
        "permit_year": 2018,
        "permit_address": "2145-A Sharon Rd",
        "permit_units": 1,
        "permit_category": "ADU"
      }
    },
    {
      "type": "Feature",
      "geometry": {
        "type": "Point",
        "coordinates": [
          -122.210922,
          37.422357
        ]
      },
      "properties": {
        "permit_year": 2018,
        "permit_address": "955 Siskiyou Dr",
        "permit_units": 1,
        "permit_category": "ADU"
      }
    },
    {
      "type": "Feature",
      "geometry": {
        "type": "Point",
        "coordinates": [
          -122.189309,
          37.448608
        ]
      },
      "properties": {
        "permit_year": 2018,
        "permit_address": "1180 Arbor Rd",
        "permit_units": 1,
        "permit_category": "ADU"
      }
    },
    {
      "type": "Feature",
      "geometry": {
        "type": "Point",
        "coordinates": [
          -122.154621,
          37.463492
        ]
      },
      "properties": {
        "permit_year": 2018,
        "permit_address": "304-A O'Keefe St",
        "permit_units": 1,
        "permit_category": "ADU"
      }
    },
    {
      "type": "Feature",
      "geometry": {
        "type": "Point",
        "coordinates": [
          -122.202722,
          37.426833
        ]
      },
      "properties": {
        "permit_year": 2018,
        "permit_address": "750-A Monte Rosa Dr",
        "permit_units": 1,
        "permit_category": "ADU"
      }
    },
    {
      "type": "Feature",
      "geometry": {
        "type": "Point",
        "coordinates": [
          -122.206982,
          37.422461
        ]
      },
      "properties": {
        "permit_year": 2018,
        "permit_address": "1165-A Monte Rosa Dr",
        "permit_units": 1,
        "permit_category": "ADU"
      }
    },
    {
      "type": "Feature",
      "geometry": {
        "type": "Point",
        "coordinates": [
          -122.188194,
          37.4611
        ]
      },
      "properties": {
        "permit_year": 2018,
        "permit_address": "326-A Encinal Ave",
        "permit_units": 1,
        "permit_category": "ADU"
      }
    },
    {
      "type": "Feature",
      "geometry": {
        "type": "Point",
        "coordinates": [
          -122.182606,
          37.454461
        ]
      },
      "properties": {
        "permit_year": 2019,
        "permit_address": "1125 Merrill St",
        "permit_units": 2,
        "permit_category": "2 to 4"
      }
    },
    {
      "type": "Feature",
      "geometry": {
        "type": "Point",
        "coordinates": [
          -122.183116,
          37.454019
        ]
      },
      "properties": {
        "permit_year": 2019,
        "permit_address": "556 Santa Cruz Ave",
        "permit_units": 4,
        "permit_category": "2 to 4"
      }
    },
    {
      "type": "Feature",
      "geometry": {
        "type": "Point",
        "coordinates": [
          -122.153052,
          37.45842
        ]
      },
      "properties": {
        "permit_year": 2019,
        "permit_address": "1911 Menalto Ave",
        "permit_units": 2,
        "permit_category": "2 to 4"
      }
    },
    {
      "type": "Feature",
      "geometry": {
        "type": "Point",
        "coordinates": [
          -122.164141,
          37.472111
        ]
      },
      "properties": {
        "permit_year": 2019,
        "permit_address": "1031 Almanor Ave",
        "permit_units": 1,
        "permit_category": "ADU"
      }
    },
    {
      "type": "Feature",
      "geometry": {
        "type": "Point",
        "coordinates": [
          -122.1539,
          37.463372
        ]
      },
      "properties": {
        "permit_year": 2019,
        "permit_address": "704 Laurel Ave",
        "permit_units": 1,
        "permit_category": "ADU"
      }
    },
    {
      "type": "Feature",
      "geometry": {
        "type": "Point",
        "coordinates": [
          -122.15286,
          37.464712
        ]
      },
      "properties": {
        "permit_year": 2019,
        "permit_address": "208 Durham St",
        "permit_units": 1,
        "permit_category": "ADU"
      }
    },
    {
      "type": "Feature",
      "geometry": {
        "type": "Point",
        "coordinates": [
          -122.154022,
          37.459644
        ]
      },
      "properties": {
        "permit_year": 2019,
        "permit_address": "413 Central Ave",
        "permit_units": 1,
        "permit_category": "ADU"
      }
    },
    {
      "type": "Feature",
      "geometry": {
        "type": "Point",
        "coordinates": [
          -122.18635,
          37.448137
        ]
      },
      "properties": {
        "permit_year": 2019,
        "permit_address": "966 Menlo Ave",
        "permit_units": 1,
        "permit_category": "2 to 4"
      }
    },
    {
      "type": "Feature",
      "geometry": {
        "type": "Point",
        "coordinates": [
          -122.186988,
          37.455601
        ]
      },
      "properties": {
        "permit_year": 2019,
        "permit_address": "1300 El Camino Real",
        "permit_units": 183,
        "permit_category": "5+"
      }
    }
  ]
}