{
  "type": "FeatureCollection",
  "features": [
    {
      "type": "Feature",
      "geometry": {
        "type": "Point",
        "coordinates": [
          -122.36373709659,
          38.4090602566256
        ]
      },
      "properties": {
        "permit_year": 2017,
        "permit_address": "1950 Yountville Cross Road",
        "permit_units": 1,
        "permit_category": "SF"
      }
    },
    {
      "type": "Feature",
      "geometry": {
        "type": "Point",
        "coordinates": [
          -122.36373709659,
          38.4090602566256
        ]
      },
      "properties": {
        "permit_year": 2017,
        "permit_address": "1950 Yountville Cross Road",
        "permit_units": 1,
        "permit_category": "SU"
      }
    },
    {
      "type": "Feature",
      "geometry": {
        "type": "Point",
        "coordinates": [
          -122.362748522226,
          38.4085294057076
        ]
      },
      "properties": {
        "permit_year": 2017,
        "permit_address": "5 Tallent Lane",
        "permit_units": 1,
        "permit_category": "SF"
      }
    },
    {
      "type": "Feature",
      "geometry": {
        "type": "Point",
        "coordinates": [
          -122.366026096028,
          38.4053121089667
        ]
      },
      "properties": {
        "permit_year": 2017,
        "permit_address": "6702 Washington Street",
        "permit_units": 1,
        "permit_category": "SF"
      }
    },
    {
      "type": "Feature",
      "geometry": {
        "type": "Point",
        "coordinates": [
          -122.359487847586,
          38.4001733603124
        ]
      },
      "properties": {
        "permit_year": 2017,
        "permit_address": "6490 Washington Street",
        "permit_units": 1,
        "permit_category": "SU"
      }
    },
    {
      "type": "Feature",
      "geometry": {
        "type": "Point",
        "coordinates": [
          -122.357220000203,
          38.4032700004103
        ]
      },
      "properties": {
        "permit_year": 2016,
        "permit_address": "1874 Larkspur",
        "permit_units": 1,
        "permit_category": "SU"
      }
    },
    {
      "type": "Feature",
      "geometry": {
        "type": "Point",
        "coordinates": [
          -122.365629631702,
          38.4060575363263
        ]
      },
      "properties": {
        "permit_year": 2015,
        "permit_address": "6743 Jefferson Street",
        "permit_units": 1,
        "permit_category": "SU"
      }
    },
    {
      "type": "Feature",
      "geometry": {
        "type": "Point",
        "coordinates": [
          -122.365458616622,
          38.4061948403197
        ]
      },
      "properties": {
        "permit_year": 2014,
        "permit_address": "6743 Jefferson",
        "permit_units": 1,
        "permit_category": "SF"
      }
    },
    {
      "type": "Feature",
      "geometry": {
        "type": "Point",
        "coordinates": [
          -122.364300000245,
          38.4052884927698
        ]
      },
      "properties": {
        "permit_year": 2014,
        "permit_address": "6640 Jefferson",
        "permit_units": 1,
        "permit_category": "SU"
      }
    },
    {
      "type": "Feature",
      "geometry": {
        "type": "Point",
        "coordinates": [
          -122.362774762645,
          38.4036012396056
        ]
      },
      "properties": {
        "permit_year": 2014,
        "permit_address": "2008 Humboldt",
        "permit_units": 1,
        "permit_category": "SF"
      }
    },
    {
      "type": "Feature",
      "geometry": {
        "type": "Point",
        "coordinates": [
          -122.364917460372,
          38.4053705280275
        ]
      },
      "properties": {
        "permit_year": 2014,
        "permit_address": "6699 Jefferson Street",
        "permit_units": 1,
        "permit_category": "SU"
      }
    },
    {
      "type": "Feature",
      "geometry": {
        "type": "Point",
        "coordinates": [
          -122.36494481595,
          38.4054761066371
        ]
      },
      "properties": {
        "permit_year": 2014,
        "permit_address": "6699 Jefferson",
        "permit_units": 1,
        "permit_category": "SF"
      }
    },
    {
      "type": "Feature",
      "geometry": {
        "type": "Point",
        "coordinates": [
          -122.362889,
          38.403772
        ]
      },
      "properties": {
        "permit_year": 2018,
        "permit_address": "6584 Jefferson St. ",
        "permit_units": 1,
        "permit_category": "ADU"
      }
    },
    {
      "type": "Feature",
      "geometry": {
        "type": "Point",
        "coordinates": [
          -122.365474,
          38.40702
        ]
      },
      "properties": {
        "permit_year": 2018,
        "permit_address": "6786 Jefferson St. ",
        "permit_units": 1,
        "permit_category": "ADU"
      }
    },
    {
      "type": "Feature",
      "geometry": {
        "type": "Point",
        "coordinates": [
          -122.364483,
          38.404872
        ]
      },
      "properties": {
        "permit_year": 2018,
        "permit_address": "6639 Jefferson St. ",
        "permit_units": 1,
        "permit_category": "ADU"
      }
    }
  ]
}