{"type": "FeatureCollection", "features": [{"type": "Feature", "geometry": {"type": "Point", "coordinates": [-121.819536575552, 37.2609517912922]}, "properties": {"permit_year": 2017, "permit_address": "5062 EDENVALE AV", "permit_units": 1.0, "permit_category": "SF"}}, {"type": "Feature", "geometry": {"type": "Point", "coordinates": [-121.819536375903, 37.2609109575747]}, "properties": {"permit_year": 2017, "permit_address": "5058 EDENVALE AV", "permit_units": 1.0, "permit_category": "SF"}}, {"type": "Feature", "geometry": {"type": "Point", "coordinates": [-121.819546905166, 37.261071718585]}, "properties": {"permit_year": 2017, "permit_address": "5052 EDENVALE AV", "permit_units": 1.0, "permit_category": "SF"}}, {"type": "Feature", "geometry": {"type": "Point", "coordinates": [-121.901239999626, 37.3327299995898]}, "properties": {"permit_year": 2017, "permit_address": "1902 NEVETS LN", "permit_units": 3.0, "permit_category": "5+"}}, {"type": "Feature", "geometry": {"type": "Point", "coordinates": [-121.793749999763, 37.2658199995934]}, "properties": {"permit_year": 2017, "permit_address": "1942 GALILEO LN", "permit_units": 6.0, "permit_category": "5+"}}, {"type": "Feature", "geometry": {"type": "Point", "coordinates": [-121.864872674235, 37.3680675958429]}, "properties": {"permit_year": 2017, "permit_address": "1966 GALILEO Lane", "permit_units": 10.0, "permit_category": "5+"}}, {"type": "Feature", "geometry": {"type": "Point", "coordinates": [-121.793749999763, 37.2658199995934]}, "properties": {"permit_year": 2017, "permit_address": "1908 GALILEO LN", "permit_units": 8.0, "permit_category": "5+"}}, {"type": "Feature", "geometry": {"type": "Point", "coordinates": [-121.933382632003, 37.2504628651691]}, "properties": {"permit_year": 2017, "permit_address": "15110 SAMARITAN DR", "permit_units": 1.0, "permit_category": "SU"}}, {"type": "Feature", "geometry": {"type": "Point", "coordinates": [-121.975349999803, 37.2999749999464]}, "properties": {"permit_year": 2017, "permit_address": "1338 FLORA AV", "permit_units": 1.0, "permit_category": "SU"}}, {"type": "Feature", "geometry": {"type": "Point", "coordinates": [-121.869425000164, 37.376954000227]}, "properties": {"permit_year": 2017, "permit_address": "1919 FARRAGUT WY", "permit_units": 1.0, "permit_category": "SU"}}, {"type": "Feature", "geometry": {"type": "Point", "coordinates": [-121.890033999969, 37.2872100003413]}, "properties": {"permit_year": 2017, "permit_address": "2341 RICHLAND AV", "permit_units": 1.0, "permit_category": "SU"}}, {"type": "Feature", "geometry": {"type": "Point", "coordinates": [-121.836492000405, 37.3597439997858]}, "properties": {"permit_year": 2017, "permit_address": "80 SIERRA VISTA PL", "permit_units": 1.0, "permit_category": "SU"}}, {"type": "Feature", "geometry": {"type": "Point", "coordinates": [-121.845585999794, 37.2697459998781]}, "properties": {"permit_year": 2017, "permit_address": "349 GRANDPARK CL", "permit_units": 1.0, "permit_category": "SU"}}, {"type": "Feature", "geometry": {"type": "Point", "coordinates": [-121.819053822176, 37.2625309522417]}, "properties": {"permit_year": 2017, "permit_address": "5072 BROOK VALLEY LP", "permit_units": 1.0, "permit_category": "SF"}}, {"type": "Feature", "geometry": {"type": "Point", "coordinates": [-121.819086008912, 37.2625053350532]}, "properties": {"permit_year": 2017, "permit_address": "5056 BROOK VALLEY LP", "permit_units": 1.0, "permit_category": "SF"}}, {"type": "Feature", "geometry": {"type": "Point", "coordinates": [-121.81910210228, 37.2623921967426]}, "properties": {"permit_year": 2017, "permit_address": "5060 BROOK VALLEY LP", "permit_units": 1.0, "permit_category": "SF"}}, {"type": "Feature", "geometry": {"type": "Point", "coordinates": [-121.819118194749, 37.2623601763811]}, "properties": {"permit_year": 2017, "permit_address": "5068 BROOK VALLEY LP", "permit_units": 1.0, "permit_category": "SF"}}, {"type": "Feature", "geometry": {"type": "Point", "coordinates": [-121.819112831192, 37.2622833266143]}, "properties": {"permit_year": 2017, "permit_address": "5076 BROOK VALLEY LP", "permit_units": 1.0, "permit_category": "SF"}}, {"type": "Feature", "geometry": {"type": "Point", "coordinates": [-121.780937999789, 37.3372440000106]}, "properties": {"permit_year": 2017, "permit_address": "3603 GROESBECK HILL DR", "permit_units": 1.0, "permit_category": "SF"}}, {"type": "Feature", "geometry": {"type": "Point", "coordinates": [-121.850334002912, 37.2827558992654]}, "properties": {"permit_year": 2017, "permit_address": "3089 VALLEY OF HEARTS DELIGHT PL", "permit_units": 6.0, "permit_category": "5+"}}, {"type": "Feature", "geometry": {"type": "Point", "coordinates": [-121.850840000166, 37.2833399999411]}, "properties": {"permit_year": 2017, "permit_address": "192 WILLIAM MANLY ST", "permit_units": 7.0, "permit_category": "5+"}}, {"type": "Feature", "geometry": {"type": "Point", "coordinates": [-121.850898061296, 37.283506579565]}, "properties": {"permit_year": 2017, "permit_address": "186 WILLIAM MANLY ST", "permit_units": 7.0, "permit_category": "5+"}}, {"type": "Feature", "geometry": {"type": "Point", "coordinates": [-121.850227444941, 37.2829998079948]}, "properties": {"permit_year": 2017, "permit_address": "3077 VALLEY OF HEARTS DELIGHT PL", "permit_units": 7.0, "permit_category": "5+"}}, {"type": "Feature", "geometry": {"type": "Point", "coordinates": [-121.851244473853, 37.2835661983215]}, "properties": {"permit_year": 2017, "permit_address": "3058 SAN JOSE VINEYARD CT", "permit_units": 7.0, "permit_category": "5+"}}, {"type": "Feature", "geometry": {"type": "Point", "coordinates": [-121.879491241328, 37.3553782067389]}, "properties": {"permit_year": 2017, "permit_address": "559 20TH ST", "permit_units": 1.0, "permit_category": "SF"}}, {"type": "Feature", "geometry": {"type": "Point", "coordinates": [-121.861828999709, 37.30417400023]}, "properties": {"permit_year": 2017, "permit_address": "2128 MONTEREY RD", "permit_units": 31.0, "permit_category": "5+"}}, {"type": "Feature", "geometry": {"type": "Point", "coordinates": [-121.853417332144, 37.2915424717078]}, "properties": {"permit_year": 2017, "permit_address": "2730 VITERBO CT", "permit_units": 7.0, "permit_category": "5+"}}, {"type": "Feature", "geometry": {"type": "Point", "coordinates": [-121.852030000184, 37.2916100000015]}, "properties": {"permit_year": 2017, "permit_address": "85 MONTECITO VISTA DR", "permit_units": 7.0, "permit_category": "5+"}}, {"type": "Feature", "geometry": {"type": "Point", "coordinates": [-121.853510000086, 37.2917199996783]}, "properties": {"permit_year": 2017, "permit_address": "2729 GINOSO CT", "permit_units": 7.0, "permit_category": "5+"}}, {"type": "Feature", "geometry": {"type": "Point", "coordinates": [-122.019511000232, 37.3096809996784]}, "properties": {"permit_year": 2017, "permit_address": "6590 BOLLINGER RD", "permit_units": 1.0, "permit_category": "SU"}}, {"type": "Feature", "geometry": {"type": "Point", "coordinates": [-121.898407000283, 37.2985319999519]}, "properties": {"permit_year": 2017, "permit_address": "1586 NEWPORT AV", "permit_units": 1.0, "permit_category": "SF"}}, {"type": "Feature", "geometry": {"type": "Point", "coordinates": [-121.898480000052, 37.2983559999295]}, "properties": {"permit_year": 2017, "permit_address": "1592 NEWPORT AV", "permit_units": 1.0, "permit_category": "SF"}}, {"type": "Feature", "geometry": {"type": "Point", "coordinates": [-121.8400000003, 37.1958800001619]}, "properties": {"permit_year": 2017, "permit_address": "7252 ST GEORGE LN", "permit_units": 1.0, "permit_category": "SF"}}, {"type": "Feature", "geometry": {"type": "Point", "coordinates": [-121.793609999602, 37.2657400004007]}, "properties": {"permit_year": 2017, "permit_address": "1968 NEVETS LN", "permit_units": 8.0, "permit_category": "5+"}}, {"type": "Feature", "geometry": {"type": "Point", "coordinates": [-121.793609999602, 37.2657400004007]}, "properties": {"permit_year": 2017, "permit_address": "1977 GALILEO LN", "permit_units": 8.0, "permit_category": "5+"}}, {"type": "Feature", "geometry": {"type": "Point", "coordinates": [-121.87024400016, 37.3369980003575]}, "properties": {"permit_year": 2017, "permit_address": "424 16TH ST", "permit_units": 1.0, "permit_category": "SU"}}, {"type": "Feature", "geometry": {"type": "Point", "coordinates": [-121.823016000388, 37.3057059998321]}, "properties": {"permit_year": 2017, "permit_address": "2923 PHILIP CT", "permit_units": 1.0, "permit_category": "SU"}}, {"type": "Feature", "geometry": {"type": "Point", "coordinates": [-121.974790000058, 37.3046010001361]}, "properties": {"permit_year": 2017, "permit_address": "1151 RANCHERO WY", "permit_units": 9.0, "permit_category": "5+"}}, {"type": "Feature", "geometry": {"type": "Point", "coordinates": [-121.957141000057, 37.3213419996336]}, "properties": {"permit_year": 2017, "permit_address": "380 ARDIS AV", "permit_units": 1.0, "permit_category": "SU"}}, {"type": "Feature", "geometry": {"type": "Point", "coordinates": [-121.784945000212, 37.2259500000925]}, "properties": {"permit_year": 2017, "permit_address": "262 ARBOR VALLEY DR", "permit_units": 1.0, "permit_category": "SU"}}, {"type": "Feature", "geometry": {"type": "Point", "coordinates": [-121.770017999831, 37.2959100004462]}, "properties": {"permit_year": 2017, "permit_address": "2758 GEORGE BLAUER PL", "permit_units": 1.0, "permit_category": "SF"}}, {"type": "Feature", "geometry": {"type": "Point", "coordinates": [-121.769954999624, 37.2959349998005]}, "properties": {"permit_year": 2017, "permit_address": "2762 GEORGE BLAUER PL", "permit_units": 1.0, "permit_category": "SF"}}, {"type": "Feature", "geometry": {"type": "Point", "coordinates": [-121.770005000131, 37.2962380002836]}, "properties": {"permit_year": 2017, "permit_address": "2767 GEORGE BLAUER PL", "permit_units": 1.0, "permit_category": "SF"}}, {"type": "Feature", "geometry": {"type": "Point", "coordinates": [-121.769893000362, 37.295960000054]}, "properties": {"permit_year": 2017, "permit_address": "2766 GEORGE BLAUER PL", "permit_units": 1.0, "permit_category": "SF"}}, {"type": "Feature", "geometry": {"type": "Point", "coordinates": [-121.770067000292, 37.29621300003]}, "properties": {"permit_year": 2017, "permit_address": "2763 GEORGE BLAUER PL", "permit_units": 1.0, "permit_category": "SF"}}, {"type": "Feature", "geometry": {"type": "Point", "coordinates": [-121.893320999564, 37.3112579995571]}, "properties": {"permit_year": 2017, "permit_address": "1145 DELMAS AV", "permit_units": 1.0, "permit_category": "SF"}}, {"type": "Feature", "geometry": {"type": "Point", "coordinates": [-121.770128999554, 37.2961879997764]}, "properties": {"permit_year": 2017, "permit_address": "2759 GEORGE BLAUER PL", "permit_units": 1.0, "permit_category": "SF"}}, {"type": "Feature", "geometry": {"type": "Point", "coordinates": [-121.940355061437, 37.2643957441683]}, "properties": {"permit_year": 2017, "permit_address": "2204 IDA DR", "permit_units": 3.0, "permit_category": "2 to 4"}}, {"type": "Feature", "geometry": {"type": "Point", "coordinates": [-121.932300000245, 37.326500000075]}, "properties": {"permit_year": 2017, "permit_address": "2222 IDA D", "permit_units": 2.0, "permit_category": "2 to 4"}}, {"type": "Feature", "geometry": {"type": "Point", "coordinates": [-121.784284000306, 37.3422549999683]}, "properties": {"permit_year": 2017, "permit_address": "2349 PLEASANT ACRES DR", "permit_units": 1.0, "permit_category": "SF"}}, {"type": "Feature", "geometry": {"type": "Point", "coordinates": [-122.016584000151, 37.3091660002108]}, "properties": {"permit_year": 2017, "permit_address": "1022 CORVETTE DR  FERNANDEZ", "permit_units": 1.0, "permit_category": "SU"}}, {"type": "Feature", "geometry": {"type": "Point", "coordinates": [-121.848647999805, 37.4061919995612]}, "properties": {"permit_year": 2017, "permit_address": "1419A OLD PIEDMONT RD", "permit_units": 1.0, "permit_category": "SF"}}, {"type": "Feature", "geometry": {"type": "Point", "coordinates": [-121.840040000346, 37.1973499996029]}, "properties": {"permit_year": 2017, "permit_address": "7208 ST GEORGE LN", "permit_units": 1.0, "permit_category": "SF"}}, {"type": "Feature", "geometry": {"type": "Point", "coordinates": [-121.84959999964, 37.2837499999626]}, "properties": {"permit_year": 2017, "permit_address": "3016 VALLEY OF HEARTS DELIGHT PL", "permit_units": 1.0, "permit_category": "SF"}}, {"type": "Feature", "geometry": {"type": "Point", "coordinates": [-121.863592872413, 37.3677494318908]}, "properties": {"permit_year": 2017, "permit_address": "2002 MAHURON CL", "permit_units": 13.0, "permit_category": "5+"}}, {"type": "Feature", "geometry": {"type": "Point", "coordinates": [-121.863742559172, 37.3678517567532]}, "properties": {"permit_year": 2017, "permit_address": "2054 MAHURON CL", "permit_units": 12.0, "permit_category": "5+"}}, {"type": "Feature", "geometry": {"type": "Point", "coordinates": [-121.85187, 37.2841700004452]}, "properties": {"permit_year": 2017, "permit_address": "3008 HENRY MILLER PL", "permit_units": 1.0, "permit_category": "SF"}}, {"type": "Feature", "geometry": {"type": "Point", "coordinates": [-121.851649999748, 37.2841100003762]}, "properties": {"permit_year": 2017, "permit_address": "3020 HENRY MILLER PL", "permit_units": 1.0, "permit_category": "SF"}}, {"type": "Feature", "geometry": {"type": "Point", "coordinates": [-121.851930000069, 37.2843600002139]}, "properties": {"permit_year": 2017, "permit_address": "190 LLANO DE LOS ROBLES AV", "permit_units": 1.0, "permit_category": "SF"}}, {"type": "Feature", "geometry": {"type": "Point", "coordinates": [-121.851769999886, 37.2841399999611]}, "properties": {"permit_year": 2017, "permit_address": "3014 HENRY MILLER PL", "permit_units": 1.0, "permit_category": "SF"}}, {"type": "Feature", "geometry": {"type": "Point", "coordinates": [-121.8519999997, 37.28420000003]}, "properties": {"permit_year": 2017, "permit_address": "3002 HENRY MILLER PL", "permit_units": 1.0, "permit_category": "SF"}}, {"type": "Feature", "geometry": {"type": "Point", "coordinates": [-121.851809999932, 37.2843299997298]}, "properties": {"permit_year": 2017, "permit_address": "186 LLANO DE LOS ROBLES AV", "permit_units": 1.0, "permit_category": "SF"}}, {"type": "Feature", "geometry": {"type": "Point", "coordinates": [-121.851580000117, 37.2842699996608]}, "properties": {"permit_year": 2017, "permit_address": "172 LLANO DE LOS ROBLES AV", "permit_units": 1.0, "permit_category": "SF"}}, {"type": "Feature", "geometry": {"type": "Point", "coordinates": [-121.851700000255, 37.2843000001449]}, "properties": {"permit_year": 2017, "permit_address": "178 LLANO DE LOS ROBLES AV", "permit_units": 1.0, "permit_category": "SF"}}, {"type": "Feature", "geometry": {"type": "Point", "coordinates": [-121.854860000289, 37.2830900001035]}, "properties": {"permit_year": 2017, "permit_address": "3112 MANUEL ST", "permit_units": 6.0, "permit_category": "5+"}}, {"type": "Feature", "geometry": {"type": "Point", "coordinates": [-121.854711344153, 37.2836285249365]}, "properties": {"permit_year": 2017, "permit_address": "298 ADELINE PL", "permit_units": 6.0, "permit_category": "5+"}}, {"type": "Feature", "geometry": {"type": "Point", "coordinates": [-121.837753000101, 37.1951899998187]}, "properties": {"permit_year": 2017, "permit_address": "7257 GOLD CREEK WY", "permit_units": 1.0, "permit_category": "SF"}}, {"type": "Feature", "geometry": {"type": "Point", "coordinates": [-121.797545746739, 37.2515223357872]}, "properties": {"permit_year": 2017, "permit_address": "139 HUDSON PL", "permit_units": 18.0, "permit_category": "5+"}}, {"type": "Feature", "geometry": {"type": "Point", "coordinates": [-121.797438459417, 37.2514881759386]}, "properties": {"permit_year": 2017, "permit_address": "105 HUDSON PL", "permit_units": 11.0, "permit_category": "5+"}}, {"type": "Feature", "geometry": {"type": "Point", "coordinates": [-121.879312828424, 37.369685915073]}, "properties": {"permit_year": 2017, "permit_address": "1033 BELLANTE Lane", "permit_units": 7.0, "permit_category": "5+"}}, {"type": "Feature", "geometry": {"type": "Point", "coordinates": [-121.848012000154, 37.4135299998097]}, "properties": {"permit_year": 2017, "permit_address": "3464 CANYON CREEK DR", "permit_units": 1.0, "permit_category": "SF"}}, {"type": "Feature", "geometry": {"type": "Point", "coordinates": [-121.895855325962, 37.3377072920579]}, "properties": {"permit_year": 2017, "permit_address": "188 W ST JAMES ST", "permit_units": 640.0, "permit_category": "5+"}}, {"type": "Feature", "geometry": {"type": "Point", "coordinates": [-121.815629999725, 37.2700539996924]}, "properties": {"permit_year": 2017, "permit_address": "372 NEILSON CT", "permit_units": 1.0, "permit_category": "SF"}}, {"type": "Feature", "geometry": {"type": "Point", "coordinates": [-121.815667999678, 37.270078999946]}, "properties": {"permit_year": 2017, "permit_address": "370 NEILSON CT", "permit_units": 1.0, "permit_category": "SF"}}, {"type": "Feature", "geometry": {"type": "Point", "coordinates": [-121.879053230122, 37.3720582438929]}, "properties": {"permit_year": 2017, "permit_address": "1032 ABRUZZO Lane", "permit_units": 7.0, "permit_category": "5+"}}, {"type": "Feature", "geometry": {"type": "Point", "coordinates": [-121.879109999827, 37.3724100002214]}, "properties": {"permit_year": 2017, "permit_address": "1033 GABBIANO LN", "permit_units": 7.0, "permit_category": "5+"}}, {"type": "Feature", "geometry": {"type": "Point", "coordinates": [-121.878870758579, 37.3727776637582]}, "properties": {"permit_year": 2017, "permit_address": "1035 GIACOMO Lane", "permit_units": 7.0, "permit_category": "5+"}}, {"type": "Feature", "geometry": {"type": "Point", "coordinates": [-121.854982999666, 37.2834480004249]}, "properties": {"permit_year": 2017, "permit_address": "301 ADELINE AV", "permit_units": 1.0, "permit_category": "SF"}}, {"type": "Feature", "geometry": {"type": "Point", "coordinates": [-121.906178999861, 37.323532999948]}, "properties": {"permit_year": 2017, "permit_address": "333 SUNOL ST", "permit_units": 268.0, "permit_category": "5+"}}, {"type": "Feature", "geometry": {"type": "Point", "coordinates": [-121.81546500021, 37.2699830000155]}, "properties": {"permit_year": 2017, "permit_address": "378 NEILSON CT", "permit_units": 1.0, "permit_category": "SF"}}, {"type": "Feature", "geometry": {"type": "Point", "coordinates": [-121.954920000158, 37.3129039999197]}, "properties": {"permit_year": 2017, "permit_address": "781 EDEN AV", "permit_units": 1.0, "permit_category": "SU"}}, {"type": "Feature", "geometry": {"type": "Point", "coordinates": [-121.812142999899, 37.3402140002759]}, "properties": {"permit_year": 2017, "permit_address": "2013 CUNNINGHAM CT", "permit_units": 1.0, "permit_category": "SF"}}, {"type": "Feature", "geometry": {"type": "Point", "coordinates": [-121.992726999851, 37.2846090000054]}, "properties": {"permit_year": 2017, "permit_address": "18408 PASEO OLIVOS", "permit_units": 1.0, "permit_category": "SU"}}, {"type": "Feature", "geometry": {"type": "Point", "coordinates": [-121.918578999721, 37.3307669998972]}, "properties": {"permit_year": 2017, "permit_address": "1339 HESTER AV", "permit_units": 1.0, "permit_category": "SU"}}, {"type": "Feature", "geometry": {"type": "Point", "coordinates": [-121.907705000086, 37.3730890000573]}, "properties": {"permit_year": 2017, "permit_address": "1700 JUNCTION CT", "permit_units": 1.0, "permit_category": "SF"}}, {"type": "Feature", "geometry": {"type": "Point", "coordinates": [-121.837565000424, 37.2371379998189]}, "properties": {"permit_year": 2017, "permit_address": "5848 SANTA TERESA BL", "permit_units": 1.0, "permit_category": "SU"}}, {"type": "Feature", "geometry": {"type": "Point", "coordinates": [-121.797119999588, 37.2511399998112]}, "properties": {"permit_year": 2017, "permit_address": "212 ELLICOTT LP", "permit_units": 7.0, "permit_category": "5+"}}, {"type": "Feature", "geometry": {"type": "Point", "coordinates": [-121.819091373368, 37.2626078002099]}, "properties": {"permit_year": 2017, "permit_address": "5080 BROOK VALLEY LP", "permit_units": 1.0, "permit_category": "SF"}}, {"type": "Feature", "geometry": {"type": "Point", "coordinates": [-121.819568962837, 37.2610182421982]}, "properties": {"permit_year": 2017, "permit_address": "5066 EDENVALE AV", "permit_units": 1.0, "permit_category": "SF"}}, {"type": "Feature", "geometry": {"type": "Point", "coordinates": [-121.96838613821, 37.2846689353232]}, "properties": {"permit_year": 2017, "permit_address": "3858 VIA MONTALVO", "permit_units": 1.0, "permit_category": "SF"}}, {"type": "Feature", "geometry": {"type": "Point", "coordinates": [-121.933777000008, 37.2497850002776]}, "properties": {"permit_year": 2017, "permit_address": "15062 BEL ESTOS DR", "permit_units": 1.0, "permit_category": "SU"}}, {"type": "Feature", "geometry": {"type": "Point", "coordinates": [-121.883493999648, 37.3977129997552]}, "properties": {"permit_year": 2017, "permit_address": "1898 FLICKINGER AV", "permit_units": 1.0, "permit_category": "SU"}}, {"type": "Feature", "geometry": {"type": "Point", "coordinates": [-121.820014999593, 37.3657040003394]}, "properties": {"permit_year": 2017, "permit_address": "3399 EAST HILLS DR", "permit_units": 1.0, "permit_category": "SF"}}, {"type": "Feature", "geometry": {"type": "Point", "coordinates": [-121.820279000076, 37.3655870003399]}, "properties": {"permit_year": 2017, "permit_address": "3391 EAST HILLS DR", "permit_units": 1.0, "permit_category": "SF"}}, {"type": "Feature", "geometry": {"type": "Point", "coordinates": [-121.819910000146, 37.3657699997857]}, "properties": {"permit_year": 2017, "permit_address": "3405 EAST HILLS DR", "permit_units": 1.0, "permit_category": "SF"}}, {"type": "Feature", "geometry": {"type": "Point", "coordinates": [-121.911081000188, 37.2956629998476]}, "properties": {"permit_year": 2017, "permit_address": "1549 KEESLING AV", "permit_units": 1.0, "permit_category": "SU"}}, {"type": "Feature", "geometry": {"type": "Point", "coordinates": [-121.891892000216, 37.3213200004178]}, "properties": {"permit_year": 2017, "permit_address": "378 BROWN ST", "permit_units": 1.0, "permit_category": "SU"}}, {"type": "Feature", "geometry": {"type": "Point", "coordinates": [-121.897278000379, 37.2824680001981]}, "properties": {"permit_year": 2017, "permit_address": "1502 DARLENE AV", "permit_units": 1.0, "permit_category": "SU"}}, {"type": "Feature", "geometry": {"type": "Point", "coordinates": [-121.858052, 37.3500939999382]}, "properties": {"permit_year": 2017, "permit_address": "68 33RD ST", "permit_units": 1.0, "permit_category": "2 to 4"}}, {"type": "Feature", "geometry": {"type": "Point", "coordinates": [-121.904394000283, 37.356988000396]}, "properties": {"permit_year": 2017, "permit_address": "1104 2ND ST", "permit_units": 1.0, "permit_category": "SU"}}, {"type": "Feature", "geometry": {"type": "Point", "coordinates": [-121.91825700016, 37.331352999941]}, "properties": {"permit_year": 2017, "permit_address": "1328 MAGNOLIA AV", "permit_units": 1.0, "permit_category": "SF"}}, {"type": "Feature", "geometry": {"type": "Point", "coordinates": [-121.92882600012, 37.3453380000487]}, "properties": {"permit_year": 2017, "permit_address": "1142 SHERWOOD AV", "permit_units": 1.0, "permit_category": "SU"}}, {"type": "Feature", "geometry": {"type": "Point", "coordinates": [-121.887172000188, 37.2913699997258]}, "properties": {"permit_year": 2017, "permit_address": "1055 FRANQUETTE AV", "permit_units": 1.0, "permit_category": "SU"}}, {"type": "Feature", "geometry": {"type": "Point", "coordinates": [-121.853014999742, 37.2396390000399]}, "properties": {"permit_year": 2017, "permit_address": "5752 SANTA TERESA BL", "permit_units": 1.0, "permit_category": "SU"}}, {"type": "Feature", "geometry": {"type": "Point", "coordinates": [-121.891268000218, 37.2629959997656]}, "properties": {"permit_year": 2017, "permit_address": "4170 JARVIS AV", "permit_units": 1.0, "permit_category": "SF"}}, {"type": "Feature", "geometry": {"type": "Point", "coordinates": [-121.891049000011, 37.2632390001798]}, "properties": {"permit_year": 2017, "permit_address": "4163 ROSS PARK DR", "permit_units": 1.0, "permit_category": "SF"}}, {"type": "Feature", "geometry": {"type": "Point", "coordinates": [-121.89097400015, 37.2630440001805]}, "properties": {"permit_year": 2017, "permit_address": "4175 ROSS PARK DR", "permit_units": 1.0, "permit_category": "SF"}}, {"type": "Feature", "geometry": {"type": "Point", "coordinates": [-121.864282000414, 37.33734800031]}, "properties": {"permit_year": 2017, "permit_address": "577 22ND ST", "permit_units": 1.0, "permit_category": "SU"}}, {"type": "Feature", "geometry": {"type": "Point", "coordinates": [-121.875255565792, 37.2720263910052]}, "properties": {"permit_year": 2017, "permit_address": "3597 REINOSO CT", "permit_units": 1.0, "permit_category": "SF"}}, {"type": "Feature", "geometry": {"type": "Point", "coordinates": [-121.875241860124, 37.272016150425]}, "properties": {"permit_year": 2017, "permit_address": "3591 REINOSO CT", "permit_units": 1.0, "permit_category": "SF"}}, {"type": "Feature", "geometry": {"type": "Point", "coordinates": [-121.875245249669, 37.2720414933203]}, "properties": {"permit_year": 2017, "permit_address": "3585 REINOSO CT", "permit_units": 1.0, "permit_category": "SF"}}, {"type": "Feature", "geometry": {"type": "Point", "coordinates": [-121.875050721813, 37.2721543015798]}, "properties": {"permit_year": 2017, "permit_address": "3582 REINOSO CT", "permit_units": 1.0, "permit_category": "SF"}}, {"type": "Feature", "geometry": {"type": "Point", "coordinates": [-121.875069273928, 37.272183715706]}, "properties": {"permit_year": 2017, "permit_address": "3578 REINOSO CT", "permit_units": 1.0, "permit_category": "SF"}}, {"type": "Feature", "geometry": {"type": "Point", "coordinates": [-121.851418999887, 37.2519159996237]}, "properties": {"permit_year": 2017, "permit_address": "5573 WEDGEWOOD CT", "permit_units": 1.0, "permit_category": "SU"}}, {"type": "Feature", "geometry": {"type": "Point", "coordinates": [-121.901239999626, 37.3327299995898]}, "properties": {"permit_year": 2017, "permit_address": "1927 NEVETS LN", "permit_units": 10.0, "permit_category": "5+"}}, {"type": "Feature", "geometry": {"type": "Point", "coordinates": [-121.889340000341, 37.3409000004347]}, "properties": {"permit_year": 2017, "permit_address": "1963 NEVETS LN", "permit_units": 10.0, "permit_category": "5+"}}, {"type": "Feature", "geometry": {"type": "Point", "coordinates": [-121.854242, 37.291038]}, "properties": {"permit_year": 2017, "permit_address": "2736 CANNARA Lane", "permit_units": 7.0, "permit_category": "5+"}}, {"type": "Feature", "geometry": {"type": "Point", "coordinates": [-121.853911408884, 37.2906767717157]}, "properties": {"permit_year": 2017, "permit_address": "2733 SORANO CT", "permit_units": 7.0, "permit_category": "5+"}}, {"type": "Feature", "geometry": {"type": "Point", "coordinates": [-121.877981290404, 37.3719767698121]}, "properties": {"permit_year": 2017, "permit_address": "1011 GIACOMO Lane", "permit_units": 7.0, "permit_category": "5+"}}, {"type": "Feature", "geometry": {"type": "Point", "coordinates": [-121.877737984221, 37.3719852099495]}, "properties": {"permit_year": 2017, "permit_address": "1587 DE ROME DR", "permit_units": 3.0, "permit_category": "2 to 4"}}, {"type": "Feature", "geometry": {"type": "Point", "coordinates": [-121.879010950295, 37.3724954052388]}, "properties": {"permit_year": 2017, "permit_address": "1017 GABBIANO Lane", "permit_units": 3.0, "permit_category": "2 to 4"}}, {"type": "Feature", "geometry": {"type": "Point", "coordinates": [-121.879249116853, 37.3698239070477]}, "properties": {"permit_year": 2017, "permit_address": "1038 BELLANTE Lane", "permit_units": 7.0, "permit_category": "5+"}}, {"type": "Feature", "geometry": {"type": "Point", "coordinates": [-121.879109555562, 37.3719378102818]}, "properties": {"permit_year": 2017, "permit_address": "1008 ABRUZZO Lane", "permit_units": 3.0, "permit_category": "2 to 4"}}, {"type": "Feature", "geometry": {"type": "Point", "coordinates": [-121.945411999664, 37.3154329996333]}, "properties": {"permit_year": 2017, "permit_address": "624 BAYWOOD AV", "permit_units": 1.0, "permit_category": "SU"}}, {"type": "Feature", "geometry": {"type": "Point", "coordinates": [-121.847099000319, 37.307650999594]}, "properties": {"permit_year": 2017, "permit_address": "2450 SENTER RD", "permit_units": 162.0, "permit_category": "5+"}}, {"type": "Feature", "geometry": {"type": "Point", "coordinates": [-121.848220999899, 37.4063860004136]}, "properties": {"permit_year": 2017, "permit_address": "1423 OLD PIEDMONT RD", "permit_units": 1.0, "permit_category": "SF"}}, {"type": "Feature", "geometry": {"type": "Point", "coordinates": [-122.027275000341, 37.3047859996742]}, "properties": {"permit_year": 2017, "permit_address": "6997 BLUE HILL DR", "permit_units": 1.0, "permit_category": "SU"}}, {"type": "Feature", "geometry": {"type": "Point", "coordinates": [-121.976424194121, 37.4269478622541]}, "properties": {"permit_year": 2017, "permit_address": "0 CATHERINE ST", "permit_units": 2.0, "permit_category": "2 to 4"}}, {"type": "Feature", "geometry": {"type": "Point", "coordinates": [-121.9141299996, 37.3232199999031]}, "properties": {"permit_year": 2017, "permit_address": "88 SAN CARLOS ST", "permit_units": 260.0, "permit_category": "5+"}}, {"type": "Feature", "geometry": {"type": "Point", "coordinates": [-121.878073514081, 37.3458427157688]}, "properties": {"permit_year": 2017, "permit_address": "710 ST JAMES ST", "permit_units": 1.0, "permit_category": "SU"}}, {"type": "Feature", "geometry": {"type": "Point", "coordinates": [-121.936924000342, 37.2984230003212]}, "properties": {"permit_year": 2017, "permit_address": "1407 SPRUANCE ST", "permit_units": 1.0, "permit_category": "SU"}}, {"type": "Feature", "geometry": {"type": "Point", "coordinates": [-121.906200999976, 37.297235000395]}, "properties": {"permit_year": 2017, "permit_address": "1421 GLENWOOD AV", "permit_units": 1.0, "permit_category": "SU"}}, {"type": "Feature", "geometry": {"type": "Point", "coordinates": [-121.879855000008, 37.3015529998711]}, "properties": {"permit_year": 2017, "permit_address": "1853 ALMADEN RD", "permit_units": 96.0, "permit_category": "5+"}}, {"type": "Feature", "geometry": {"type": "Point", "coordinates": [-121.925885000293, 37.3363639998987]}, "properties": {"permit_year": 2017, "permit_address": "1364 UNIVERSITY AV", "permit_units": 1.0, "permit_category": "SU"}}, {"type": "Feature", "geometry": {"type": "Point", "coordinates": [-121.78547799961, 37.2264159999984]}, "properties": {"permit_year": 2017, "permit_address": "267 ARBOR VALLEY DR", "permit_units": 1.0, "permit_category": "SU"}}, {"type": "Feature", "geometry": {"type": "Point", "coordinates": [-121.836957000265, 37.2854249998639]}, "properties": {"permit_year": 2017, "permit_address": "13099 WOOL AV", "permit_units": 1.0, "permit_category": "SU"}}, {"type": "Feature", "geometry": {"type": "Point", "coordinates": [-121.854297000406, 37.327371999818]}, "properties": {"permit_year": 2017, "permit_address": "1300 LUCRETIA AV", "permit_units": 1.0, "permit_category": "SU"}}, {"type": "Feature", "geometry": {"type": "Point", "coordinates": [-121.850908999751, 37.3310040000346]}, "properties": {"permit_year": 2017, "permit_address": "1178 PANOCHE AV", "permit_units": 1.0, "permit_category": "SU"}}, {"type": "Feature", "geometry": {"type": "Point", "coordinates": [-121.846243000414, 37.4065160001134]}, "properties": {"permit_year": 2017, "permit_address": "3527 PINNACLE CT", "permit_units": 1.0, "permit_category": "SU"}}, {"type": "Feature", "geometry": {"type": "Point", "coordinates": [-121.890598999944, 37.3104029996987]}, "properties": {"permit_year": 2017, "permit_address": "644 DOROTHY AV", "permit_units": 1.0, "permit_category": "SU"}}, {"type": "Feature", "geometry": {"type": "Point", "coordinates": [-121.914579999667, 37.3379599997542]}, "properties": {"permit_year": 2017, "permit_address": "890 VILLA AV", "permit_units": 1.0, "permit_category": "SF"}}, {"type": "Feature", "geometry": {"type": "Point", "coordinates": [-121.883619000017, 37.3209949998194]}, "properties": {"permit_year": 2017, "permit_address": "886 ALMADEN AV", "permit_units": 2.0, "permit_category": "2 to 4"}}, {"type": "Feature", "geometry": {"type": "Point", "coordinates": [-121.808312, 37.2945]}, "properties": {"permit_year": 2017, "permit_address": "1408 COTTLESTONE CT", "permit_units": 1.0, "permit_category": "SF"}}, {"type": "Feature", "geometry": {"type": "Point", "coordinates": [-121.781690000293, 37.3385600004437]}, "properties": {"permit_year": 2017, "permit_address": "2715 KLEIN RD", "permit_units": 1.0, "permit_category": "SU"}}, {"type": "Feature", "geometry": {"type": "Point", "coordinates": [-121.807142, 37.295332]}, "properties": {"permit_year": 2017, "permit_address": "1452 COTTLESTONE CT", "permit_units": 1.0, "permit_category": "SF"}}, {"type": "Feature", "geometry": {"type": "Point", "coordinates": [-121.763950999739, 37.2743479998604]}, "properties": {"permit_year": 2017, "permit_address": "2062 BIARRITZ PL", "permit_units": 1.0, "permit_category": "SF"}}, {"type": "Feature", "geometry": {"type": "Point", "coordinates": [-121.846414000206, 37.3818320003466]}, "properties": {"permit_year": 2017, "permit_address": "2910 GLEN HEATHER DR", "permit_units": 1.0, "permit_category": "SU"}}, {"type": "Feature", "geometry": {"type": "Point", "coordinates": [-121.83540000041, 37.3447800003968]}, "properties": {"permit_year": 2017, "permit_address": "1435 COTTLESTONE CT", "permit_units": 1.0, "permit_category": "SF"}}, {"type": "Feature", "geometry": {"type": "Point", "coordinates": [-121.879337450063, 37.3698289666336]}, "properties": {"permit_year": 2017, "permit_address": "1025 BELLANTE Lane", "permit_units": 7.0, "permit_category": "5+"}}, {"type": "Feature", "geometry": {"type": "Point", "coordinates": [-121.850813999866, 37.3316229998017]}, "properties": {"permit_year": 2017, "permit_address": "1207 PANOCHE AV", "permit_units": 1.0, "permit_category": "SU"}}, {"type": "Feature", "geometry": {"type": "Point", "coordinates": [-121.807823, 37.295305]}, "properties": {"permit_year": 2017, "permit_address": "1441 COTTLESTONE CT", "permit_units": 1.0, "permit_category": "SF"}}, {"type": "Feature", "geometry": {"type": "Point", "coordinates": [-121.879180326811, 37.3698857282438]}, "properties": {"permit_year": 2017, "permit_address": "1020 BELLANTE Lane", "permit_units": 7.0, "permit_category": "5+"}}, {"type": "Feature", "geometry": {"type": "Point", "coordinates": [-121.853443999741, 37.2924530002059]}, "properties": {"permit_year": 2017, "permit_address": "156 ESFAHAN DR", "permit_units": 7.0, "permit_category": "5+"}}, {"type": "Feature", "geometry": {"type": "Point", "coordinates": [-121.807807, 37.294855]}, "properties": {"permit_year": 2017, "permit_address": "1426 COTTLESTONE CT", "permit_units": 1.0, "permit_category": "SF"}}, {"type": "Feature", "geometry": {"type": "Point", "coordinates": [-121.879574030217, 37.3719584910916]}, "properties": {"permit_year": 2017, "permit_address": "1021 ONOFRIO Lane", "permit_units": 7.0, "permit_category": "5+"}}, {"type": "Feature", "geometry": {"type": "Point", "coordinates": [-121.853736999763, 37.2922160000684]}, "properties": {"permit_year": 2017, "permit_address": "198 ESFAHAN DR", "permit_units": 8.0, "permit_category": "5+"}}, {"type": "Feature", "geometry": {"type": "Point", "coordinates": [-121.853726819437, 37.2911502989472]}, "properties": {"permit_year": 2017, "permit_address": "2732 SORANO CT", "permit_units": 8.0, "permit_category": "5+"}}, {"type": "Feature", "geometry": {"type": "Point", "coordinates": [-121.853528744656, 37.2908055528341]}, "properties": {"permit_year": 2017, "permit_address": "97 MONTECITO VISTA DR", "permit_units": 8.0, "permit_category": "5+"}}, {"type": "Feature", "geometry": {"type": "Point", "coordinates": [-121.853780463098, 37.2907576648344]}, "properties": {"permit_year": 2017, "permit_address": "2731 VITERBO CT", "permit_units": 8.0, "permit_category": "5+"}}, {"type": "Feature", "geometry": {"type": "Point", "coordinates": [-121.850833687824, 37.2834553613759]}, "properties": {"permit_year": 2017, "permit_address": "199 WILLIAM MANLY ST", "permit_units": 5.0, "permit_category": "5+"}}, {"type": "Feature", "geometry": {"type": "Point", "coordinates": [-121.850833687824, 37.2834638977407]}, "properties": {"permit_year": 2017, "permit_address": "193 WILLIAM MANLY ST", "permit_units": 5.0, "permit_category": "5+"}}, {"type": "Feature", "geometry": {"type": "Point", "coordinates": [-121.850169855055, 37.2835482703364]}, "properties": {"permit_year": 2017, "permit_address": "3065 VALLEY OF HEARTS DELIGHT PL", "permit_units": 5.0, "permit_category": "5+"}}, {"type": "Feature", "geometry": {"type": "Point", "coordinates": [-121.850844416736, 37.2834638977407]}, "properties": {"permit_year": 2017, "permit_address": "187 WILLIAM MANLY ST", "permit_units": 5.0, "permit_category": "5+"}}, {"type": "Feature", "geometry": {"type": "Point", "coordinates": [-121.852260961374, 37.2838444701462]}, "properties": {"permit_year": 2017, "permit_address": "231 WILLIAM MANLY ST", "permit_units": 5.0, "permit_category": "5+"}}, {"type": "Feature", "geometry": {"type": "Point", "coordinates": [-121.852027860697, 37.2837826696345]}, "properties": {"permit_year": 2017, "permit_address": "223 WILLIAM MANLY ST", "permit_units": 5.0, "permit_category": "5+"}}, {"type": "Feature", "geometry": {"type": "Point", "coordinates": [-121.920415999898, 37.3146900004432]}, "properties": {"permit_year": 2017, "permit_address": "682 CHAUNCEY CT", "permit_units": 1.0, "permit_category": "SU"}}, {"type": "Feature", "geometry": {"type": "Point", "coordinates": [-121.819036000311, 37.3475559998096]}, "properties": {"permit_year": 2017, "permit_address": "1489 SUNDOWN LN", "permit_units": 1.0, "permit_category": "SU"}}, {"type": "Feature", "geometry": {"type": "Point", "coordinates": [-121.799339000295, 37.3528629999275]}, "properties": {"permit_year": 2017, "permit_address": "3531 MILLICENT CT", "permit_units": 1.0, "permit_category": "SU"}}, {"type": "Feature", "geometry": {"type": "Point", "coordinates": [-121.859951000338, 37.4061359996767]}, "properties": {"permit_year": 2017, "permit_address": "1715 LOCKSLEY PARK DR", "permit_units": 1.0, "permit_category": "SU"}}, {"type": "Feature", "geometry": {"type": "Point", "coordinates": [-121.993117999896, 37.2948849999428]}, "properties": {"permit_year": 2017, "permit_address": "1542 CAMEO DR  NEMALI", "permit_units": 1.0, "permit_category": "SU"}}, {"type": "Feature", "geometry": {"type": "Point", "coordinates": [-121.851933287991, 37.2838002792595]}, "properties": {"permit_year": 2017, "permit_address": "217 WILLIAM MANLY ST", "permit_units": 5.0, "permit_category": "5+"}}, {"type": "Feature", "geometry": {"type": "Point", "coordinates": [-121.851911830167, 37.283774670165]}, "properties": {"permit_year": 2017, "permit_address": "211 WILLIAM MANLY ST", "permit_units": 5.0, "permit_category": "5+"}}, {"type": "Feature", "geometry": {"type": "Point", "coordinates": [-121.946990999635, 37.2977059996322]}, "properties": {"permit_year": 2017, "permit_address": "3005 DAVID AV", "permit_units": 1.0, "permit_category": "SF"}}, {"type": "Feature", "geometry": {"type": "Point", "coordinates": [-121.784235999891, 37.3337340000242]}, "properties": {"permit_year": 2017, "permit_address": "2834 MANTIS DR", "permit_units": 1.0, "permit_category": "SU"}}, {"type": "Feature", "geometry": {"type": "Point", "coordinates": [-121.866384000221, 37.4067999997202]}, "properties": {"permit_year": 2017, "permit_address": "3043 MELCHESTER DR", "permit_units": 1.0, "permit_category": "SU"}}, {"type": "Feature", "geometry": {"type": "Point", "coordinates": [-121.865161, 37.368195]}, "properties": {"permit_year": 2017, "permit_address": "1944 NEVETS Lane", "permit_units": 6.0, "permit_category": "5+"}}, {"type": "Feature", "geometry": {"type": "Point", "coordinates": [-121.793609999602, 37.2657400004007]}, "properties": {"permit_year": 2017, "permit_address": "1949 GALILEO LN", "permit_units": 6.0, "permit_category": "5+"}}, {"type": "Feature", "geometry": {"type": "Point", "coordinates": [-121.793609999602, 37.2657400004007]}, "properties": {"permit_year": 2017, "permit_address": "1914 NEVETS LN", "permit_units": 8.0, "permit_category": "5+"}}, {"type": "Feature", "geometry": {"type": "Point", "coordinates": [-121.793749999763, 37.2658199995934]}, "properties": {"permit_year": 2017, "permit_address": "1917 GALILEO LN", "permit_units": 8.0, "permit_category": "5+"}}, {"type": "Feature", "geometry": {"type": "Point", "coordinates": [-121.896730000289, 37.3377400004007]}, "properties": {"permit_year": 2017, "permit_address": "2378 O'HARA CT", "permit_units": 1.0, "permit_category": "SU"}}, {"type": "Feature", "geometry": {"type": "Point", "coordinates": [-121.881478000209, 37.2934090002252]}, "properties": {"permit_year": 2017, "permit_address": "2194 COASTLAND AV", "permit_units": 1.0, "permit_category": "SU"}}, {"type": "Feature", "geometry": {"type": "Point", "coordinates": [-121.877299999995, 37.3685399998212]}, "properties": {"permit_year": 2017, "permit_address": "1036 ONOFRIO LN", "permit_units": 7.0, "permit_category": "5+"}}, {"type": "Feature", "geometry": {"type": "Point", "coordinates": [-122.04340000021, 37.3208599998891]}, "properties": {"permit_year": 2017, "permit_address": "1035 ONOFRIO LN", "permit_units": 7.0, "permit_category": "5+"}}, {"type": "Feature", "geometry": {"type": "Point", "coordinates": [-121.878531659309, 37.372520996347]}, "properties": {"permit_year": 2017, "permit_address": "1027 GIACOMO Lane", "permit_units": 7.0, "permit_category": "5+"}}, {"type": "Feature", "geometry": {"type": "Point", "coordinates": [-121.879022159445, 37.3725700426734]}, "properties": {"permit_year": 2017, "permit_address": "1025 GABBIANO Lane", "permit_units": 7.0, "permit_category": "5+"}}, {"type": "Feature", "geometry": {"type": "Point", "coordinates": [-121.877299999995, 37.3685399998212]}, "properties": {"permit_year": 2017, "permit_address": "1037 ABRUZZO LN", "permit_units": 7.0, "permit_category": "5+"}}, {"type": "Feature", "geometry": {"type": "Point", "coordinates": [-121.868196000145, 37.3427840000816]}, "properties": {"permit_year": 2017, "permit_address": "145 21ST ST", "permit_units": 1.0, "permit_category": "SU"}}, {"type": "Feature", "geometry": {"type": "Point", "coordinates": [-121.976533000398, 37.3074700002404]}, "properties": {"permit_year": 2017, "permit_address": "4171 WILL ROGERS DR", "permit_units": 1.0, "permit_category": "SU"}}, {"type": "Feature", "geometry": {"type": "Point", "coordinates": [-121.883811999924, 37.3269170004193]}, "properties": {"permit_year": 2017, "permit_address": "5 REED ST", "permit_units": 105.0, "permit_category": "5+"}}, {"type": "Feature", "geometry": {"type": "Point", "coordinates": [-121.893423999818, 37.3341799999071]}, "properties": {"permit_year": 2017, "permit_address": "28 ALMADEN AV", "permit_units": 25.0, "permit_category": "5+"}}, {"type": "Feature", "geometry": {"type": "Point", "coordinates": [-121.909430999641, 37.2728819997046]}, "properties": {"permit_year": 2017, "permit_address": "1692 WILLOW CREEK DR", "permit_units": 1.0, "permit_category": "SU"}}, {"type": "Feature", "geometry": {"type": "Point", "coordinates": [-121.834863999974, 37.3472419997186]}, "properties": {"permit_year": 2017, "permit_address": "2226 TIARA DR", "permit_units": 1.0, "permit_category": "SU"}}, {"type": "Feature", "geometry": {"type": "Point", "coordinates": [-121.789065000449, 37.2489850002576]}, "properties": {"permit_year": 2017, "permit_address": "91 FOXWELL CT", "permit_units": 1.0, "permit_category": "SU"}}, {"type": "Feature", "geometry": {"type": "Point", "coordinates": [-121.826087999961, 37.2777009998014]}, "properties": {"permit_year": 2017, "permit_address": "324 SENTER RD", "permit_units": 1.0, "permit_category": "SU"}}, {"type": "Feature", "geometry": {"type": "Point", "coordinates": [-121.95513500018, 37.3214960004401]}, "properties": {"permit_year": 2017, "permit_address": "374 HENRY AV", "permit_units": 1.0, "permit_category": "SU"}}, {"type": "Feature", "geometry": {"type": "Point", "coordinates": [-121.865960594906, 37.3667990283525]}, "properties": {"permit_year": 2017, "permit_address": "1802 NEWBURY PARK DR", "permit_units": 5.0, "permit_category": "5+"}}, {"type": "Feature", "geometry": {"type": "Point", "coordinates": [-121.866099, 37.366191]}, "properties": {"permit_year": 2017, "permit_address": "651 BLACKBURY Lane", "permit_units": 12.0, "permit_category": "5+"}}, {"type": "Feature", "geometry": {"type": "Point", "coordinates": [-121.942990000388, 37.320767000097]}, "properties": {"permit_year": 2017, "permit_address": "424 MONROE ST", "permit_units": 1.0, "permit_category": "SU"}}, {"type": "Feature", "geometry": {"type": "Point", "coordinates": [-121.838001999892, 37.3488049998509]}, "properties": {"permit_year": 2017, "permit_address": "791 DIANA LN", "permit_units": 1.0, "permit_category": "SU"}}, {"type": "Feature", "geometry": {"type": "Point", "coordinates": [-121.798459000183, 37.3172780001796]}, "properties": {"permit_year": 2017, "permit_address": "2902 SCOTTSDALE DR", "permit_units": 1.0, "permit_category": "SU"}}, {"type": "Feature", "geometry": {"type": "Point", "coordinates": [-121.87726500018, 37.4114819997945]}, "properties": {"permit_year": 2017, "permit_address": "2920 POSTWOOD DR", "permit_units": 1.0, "permit_category": "SU"}}, {"type": "Feature", "geometry": {"type": "Point", "coordinates": [-121.871114828986, 37.2328606299142]}, "properties": {"permit_year": 2017, "permit_address": "6020 ROCCO CT", "permit_units": 1.0, "permit_category": "SF"}}, {"type": "Feature", "geometry": {"type": "Point", "coordinates": [-121.871134957612, 37.2327654195885]}, "properties": {"permit_year": 2017, "permit_address": "6014 ROCCO CT", "permit_units": 1.0, "permit_category": "SF"}}, {"type": "Feature", "geometry": {"type": "Point", "coordinates": [-121.871200905797, 37.2327550890761]}, "properties": {"permit_year": 2017, "permit_address": "6008 ROCCO CT", "permit_units": 1.0, "permit_category": "SF"}}, {"type": "Feature", "geometry": {"type": "Point", "coordinates": [-121.871105440963, 37.2327698703333]}, "properties": {"permit_year": 2017, "permit_address": "6002 ROCCO CT", "permit_units": 1.0, "permit_category": "SF"}}, {"type": "Feature", "geometry": {"type": "Point", "coordinates": [-121.871080284228, 37.2327773257131]}, "properties": {"permit_year": 2017, "permit_address": "6005 ROCCO CT", "permit_units": 1.0, "permit_category": "SF"}}, {"type": "Feature", "geometry": {"type": "Point", "coordinates": [-121.871066263797, 37.2327502956896]}, "properties": {"permit_year": 2017, "permit_address": "6011 ROCCO CT", "permit_units": 1.0, "permit_category": "SF"}}, {"type": "Feature", "geometry": {"type": "Point", "coordinates": [-121.871121862584, 37.2327368832006]}, "properties": {"permit_year": 2017, "permit_address": "6023 ROCCO CT", "permit_units": 1.0, "permit_category": "SF"}}, {"type": "Feature", "geometry": {"type": "Point", "coordinates": [-121.871044547868, 37.2327215704442]}, "properties": {"permit_year": 2017, "permit_address": "6017 ROCCO CT", "permit_units": 1.0, "permit_category": "SF"}}, {"type": "Feature", "geometry": {"type": "Point", "coordinates": [-121.80764, 37.294972]}, "properties": {"permit_year": 2017, "permit_address": "1432 COTTLESTONE CT", "permit_units": 1.0, "permit_category": "SF"}}, {"type": "Feature", "geometry": {"type": "Point", "coordinates": [-121.875779000001, 37.348592999967]}, "properties": {"permit_year": 2017, "permit_address": "275 19TH ST", "permit_units": 1.0, "permit_category": "SU"}}, {"type": "Feature", "geometry": {"type": "Point", "coordinates": [-121.950057999877, 37.3092040001645]}, "properties": {"permit_year": 2017, "permit_address": "919 WINCHESTER BL", "permit_units": 267.0, "permit_category": "5+"}}, {"type": "Feature", "geometry": {"type": "Point", "coordinates": [-121.950100000015, 37.3327969999816]}, "properties": {"permit_year": 2017, "permit_address": "877 WINCHESTER BL", "permit_units": 369.0, "permit_category": "5+"}}, {"type": "Feature", "geometry": {"type": "Point", "coordinates": [-121.904246999799, 37.3026639998438]}, "properties": {"permit_year": 2017, "permit_address": "1318 CHERRY AV", "permit_units": 1.0, "permit_category": "SU"}}, {"type": "Feature", "geometry": {"type": "Point", "coordinates": [-121.894930000019, 37.2841139996614]}, "properties": {"permit_year": 2017, "permit_address": "2372 SHIBLEY AV", "permit_units": 1.0, "permit_category": "SU"}}, {"type": "Feature", "geometry": {"type": "Point", "coordinates": [-121.878523999783, 37.3479920001308]}, "properties": {"permit_year": 2017, "permit_address": "306 16TH ST", "permit_units": 1.0, "permit_category": "SU"}}, {"type": "Feature", "geometry": {"type": "Point", "coordinates": [-121.866041, 37.367884]}, "properties": {"permit_year": 2017, "permit_address": "1901 NEVETS Lane", "permit_units": 10.0, "permit_category": "5+"}}, {"type": "Feature", "geometry": {"type": "Point", "coordinates": [-121.865778, 37.365848]}, "properties": {"permit_year": 2017, "permit_address": "601 BLACKBURY Lane", "permit_units": 11.0, "permit_category": "5+"}}, {"type": "Feature", "geometry": {"type": "Point", "coordinates": [-121.851745999678, 37.4108969997968]}, "properties": {"permit_year": 2017, "permit_address": "3452 FIFE WY", "permit_units": 1.0, "permit_category": "SU"}}, {"type": "Feature", "geometry": {"type": "Point", "coordinates": [-121.794952000334, 37.3459460002078]}, "properties": {"permit_year": 2017, "permit_address": "3557 CUESTA DR", "permit_units": 1.0, "permit_category": "SU"}}, {"type": "Feature", "geometry": {"type": "Point", "coordinates": [-121.823792000201, 37.2819620002462]}, "properties": {"permit_year": 2017, "permit_address": "4123 SENTER RD", "permit_units": 1.0, "permit_category": "SU"}}, {"type": "Feature", "geometry": {"type": "Point", "coordinates": [-121.818618999967, 37.3130040000347]}, "properties": {"permit_year": 2017, "permit_address": "2828 BEECHER CT", "permit_units": 1.0, "permit_category": "SU"}}, {"type": "Feature", "geometry": {"type": "Point", "coordinates": [-121.954997000111, 37.3054149999024]}, "properties": {"permit_year": 2017, "permit_address": "3267 OXFORD LN", "permit_units": 1.0, "permit_category": "SU"}}, {"type": "Feature", "geometry": {"type": "Point", "coordinates": [-121.945078999596, 37.2457480002701]}, "properties": {"permit_year": 2017, "permit_address": "5063 ELESTER DR", "permit_units": 1.0, "permit_category": "SU"}}, {"type": "Feature", "geometry": {"type": "Point", "coordinates": [-121.905454999748, 37.3335820002092]}, "properties": {"permit_year": 2017, "permit_address": "130 STOCKTON AV", "permit_units": 162.0, "permit_category": "5+"}}, {"type": "Feature", "geometry": {"type": "Point", "coordinates": [-121.917874999632, 37.2982300004143]}, "properties": {"permit_year": 2017, "permit_address": "1805 BLACKFORD LN", "permit_units": 1.0, "permit_category": "SU"}}, {"type": "Feature", "geometry": {"type": "Point", "coordinates": [-122.015375000156, 37.2993839996719]}, "properties": {"permit_year": 2017, "permit_address": "1335 MILLER AV", "permit_units": 1.0, "permit_category": "SU"}}, {"type": "Feature", "geometry": {"type": "Point", "coordinates": [-121.82231699963, 37.3023929999371]}, "properties": {"permit_year": 2017, "permit_address": "1211 SHADOWFAX DR", "permit_units": 1.0, "permit_category": "SU"}}, {"type": "Feature", "geometry": {"type": "Point", "coordinates": [-121.844219999753, 37.2046639996439]}, "properties": {"permit_year": 2017, "permit_address": "1111 PIPPIN CREEK CT", "permit_units": 1.0, "permit_category": "SU"}}, {"type": "Feature", "geometry": {"type": "Point", "coordinates": [-121.834796000435, 37.364992999927]}, "properties": {"permit_year": 2017, "permit_address": "66 BIRCH LN", "permit_units": 1.0, "permit_category": "SU"}}, {"type": "Feature", "geometry": {"type": "Point", "coordinates": [-121.920787999966, 37.2446829997207]}, "properties": {"permit_year": 2017, "permit_address": "15422 LONE HILL RD", "permit_units": 1.0, "permit_category": "SU"}}, {"type": "Feature", "geometry": {"type": "Point", "coordinates": [-121.813879999962, 37.2978950002541]}, "properties": {"permit_year": 2017, "permit_address": "3698 LIGHTFARE CT", "permit_units": 1.0, "permit_category": "SU"}}, {"type": "Feature", "geometry": {"type": "Point", "coordinates": [-121.8820129997, 37.3171339998343]}, "properties": {"permit_year": 2017, "permit_address": "245 GOODYEAR ST", "permit_units": 1.0, "permit_category": "SU"}}, {"type": "Feature", "geometry": {"type": "Point", "coordinates": [-121.884824999874, 37.2651080000342]}, "properties": {"permit_year": 2017, "permit_address": "4089 EL CORAL CT", "permit_units": 1.0, "permit_category": "SU"}}, {"type": "Feature", "geometry": {"type": "Point", "coordinates": [-121.883575999832, 37.3473389996951]}, "properties": {"permit_year": 2017, "permit_address": "387 12TH ST", "permit_units": 1.0, "permit_category": "SU"}}, {"type": "Feature", "geometry": {"type": "Point", "coordinates": [-121.819494507066, 37.2610436867168]}, "properties": {"permit_year": 2017, "permit_address": "5018 EDENVALE AV", "permit_units": 1.0, "permit_category": "SF"}}, {"type": "Feature", "geometry": {"type": "Point", "coordinates": [-121.819479211396, 37.2609949767368]}, "properties": {"permit_year": 2017, "permit_address": "5028 EDENVALE AV", "permit_units": 1.0, "permit_category": "SF"}}, {"type": "Feature", "geometry": {"type": "Point", "coordinates": [-121.819489379131, 37.2610298353587]}, "properties": {"permit_year": 2017, "permit_address": "5022 EDENVALE AV", "permit_units": 1.0, "permit_category": "SF"}}, {"type": "Feature", "geometry": {"type": "Point", "coordinates": [-121.819076620889, 37.262479718764]}, "properties": {"permit_year": 2017, "permit_address": "5030 BROOK VALLEY LP", "permit_units": 1.0, "permit_category": "SF"}}, {"type": "Feature", "geometry": {"type": "Point", "coordinates": [-121.818966276772, 37.2625816632132]}, "properties": {"permit_year": 2017, "permit_address": "5020 BROOK VALLEY LP", "permit_units": 1.0, "permit_category": "SF"}}, {"type": "Feature", "geometry": {"type": "Point", "coordinates": [-121.818987939642, 37.2625152006161]}, "properties": {"permit_year": 2017, "permit_address": "5026 BROOK VALLEY LP", "permit_units": 1.0, "permit_category": "SF"}}, {"type": "Feature", "geometry": {"type": "Point", "coordinates": [-121.807474, 37.295089]}, "properties": {"permit_year": 2017, "permit_address": "1438 COTTLESTONE CT", "permit_units": 1.0, "permit_category": "SF"}}, {"type": "Feature", "geometry": {"type": "Point", "coordinates": [-121.807309, 37.295205]}, "properties": {"permit_year": 2017, "permit_address": "1446 COTTLESTONE CT", "permit_units": 1.0, "permit_category": "SF"}}, {"type": "Feature", "geometry": {"type": "Point", "coordinates": [-121.808493, 37.29437]}, "properties": {"permit_year": 2017, "permit_address": "1402 COTTLESTONE CT", "permit_units": 1.0, "permit_category": "SF"}}, {"type": "Feature", "geometry": {"type": "Point", "coordinates": [-121.808143, 37.294619]}, "properties": {"permit_year": 2017, "permit_address": "1414 COTTLESTONE CT", "permit_units": 1.0, "permit_category": "SF"}}, {"type": "Feature", "geometry": {"type": "Point", "coordinates": [-121.807974, 37.294737]}, "properties": {"permit_year": 2017, "permit_address": "1420 COTTLESTONE CT", "permit_units": 1.0, "permit_category": "SF"}}, {"type": "Feature", "geometry": {"type": "Point", "coordinates": [-121.837754000147, 37.2878660000159]}, "properties": {"permit_year": 2017, "permit_address": "10337 SINGLETON RD", "permit_units": 1.0, "permit_category": "SU"}}, {"type": "Feature", "geometry": {"type": "Point", "coordinates": [-121.889849999578, 37.291178999911]}, "properties": {"permit_year": 2017, "permit_address": "1126 LINCOLN CT", "permit_units": 1.0, "permit_category": "SU"}}, {"type": "Feature", "geometry": {"type": "Point", "coordinates": [-121.968101048624, 37.2843690959571]}, "properties": {"permit_year": 2017, "permit_address": "3853 BUCKNALL RD", "permit_units": 1.0, "permit_category": "SF"}}, {"type": "Feature", "geometry": {"type": "Point", "coordinates": [-121.801697000216, 37.3163769999986]}, "properties": {"permit_year": 2017, "permit_address": "3169 EVERDALE DR", "permit_units": 1.0, "permit_category": "SU"}}, {"type": "Feature", "geometry": {"type": "Point", "coordinates": [-121.808368, 37.294973]}, "properties": {"permit_year": 2017, "permit_address": "1423 COTTLESTONE CT", "permit_units": 1.0, "permit_category": "SF"}}, {"type": "Feature", "geometry": {"type": "Point", "coordinates": [-121.808872, 37.294629]}, "properties": {"permit_year": 2017, "permit_address": "1405 COTTLESTONE CT", "permit_units": 1.0, "permit_category": "SF"}}, {"type": "Feature", "geometry": {"type": "Point", "coordinates": [-121.808699, 37.294752]}, "properties": {"permit_year": 2017, "permit_address": "1411 COTTLESTONE CT", "permit_units": 1.0, "permit_category": "SF"}}, {"type": "Feature", "geometry": {"type": "Point", "coordinates": [-121.808536, 37.294861]}, "properties": {"permit_year": 2017, "permit_address": "1417 COTTLESTONE CT", "permit_units": 1.0, "permit_category": "SF"}}, {"type": "Feature", "geometry": {"type": "Point", "coordinates": [-121.808198, 37.295086]}, "properties": {"permit_year": 2017, "permit_address": "1429 COTTLESTONE CT", "permit_units": 1.0, "permit_category": "SF"}}, {"type": "Feature", "geometry": {"type": "Point", "coordinates": [-121.808973000304, 37.2937780001546]}, "properties": {"permit_year": 2017, "permit_address": "3810 DOVE HILL RD", "permit_units": 1.0, "permit_category": "SF"}}, {"type": "Feature", "geometry": {"type": "Point", "coordinates": [-121.975876999824, 37.3006929997821]}, "properties": {"permit_year": 2017, "permit_address": "1303 FLORA AV", "permit_units": 1.0, "permit_category": "SU"}}, {"type": "Feature", "geometry": {"type": "Point", "coordinates": [-121.818875884115, 37.2624923731246]}, "properties": {"permit_year": 2017, "permit_address": "5036 BROOK VALLEY LP", "permit_units": 1.0, "permit_category": "SF"}}, {"type": "Feature", "geometry": {"type": "Point", "coordinates": [-121.820320000168, 37.2623099996068]}, "properties": {"permit_year": 2017, "permit_address": "5038 EDENVALE AV", "permit_units": 1.0, "permit_category": "SF"}}, {"type": "Feature", "geometry": {"type": "Point", "coordinates": [-121.820320000168, 37.2623099996068]}, "properties": {"permit_year": 2017, "permit_address": "5032 EDENVALE AV", "permit_units": 1.0, "permit_category": "SF"}}, {"type": "Feature", "geometry": {"type": "Point", "coordinates": [-121.818887524939, 37.2624412952296]}, "properties": {"permit_year": 2017, "permit_address": "5050 BROOK VALLEY LP", "permit_units": 1.0, "permit_category": "SF"}}, {"type": "Feature", "geometry": {"type": "Point", "coordinates": [-121.818957262867, 37.2626163392727]}, "properties": {"permit_year": 2017, "permit_address": "5048 BROOK VALLEY LP", "permit_units": 1.0, "permit_category": "SF"}}, {"type": "Feature", "geometry": {"type": "Point", "coordinates": [-121.959645000416, 37.3217490004161]}, "properties": {"permit_year": 2017, "permit_address": "358 CYPRESS AV", "permit_units": 1.0, "permit_category": "SF"}}, {"type": "Feature", "geometry": {"type": "Point", "coordinates": [-121.95964400037, 37.321698999909]}, "properties": {"permit_year": 2017, "permit_address": "360 CYPRESS AV", "permit_units": 1.0, "permit_category": "SF"}}, {"type": "Feature", "geometry": {"type": "Point", "coordinates": [-121.959492999702, 37.3216919995862]}, "properties": {"permit_year": 2017, "permit_address": "356 CYPRESS AV", "permit_units": 1.0, "permit_category": "SF"}}, {"type": "Feature", "geometry": {"type": "Point", "coordinates": [-121.95964400037, 37.3216500003473]}, "properties": {"permit_year": 2017, "permit_address": "362 CYPRESS AV", "permit_units": 1.0, "permit_category": "SF"}}, {"type": "Feature", "geometry": {"type": "Point", "coordinates": [-121.855366000241, 37.2643540003369]}, "properties": {"permit_year": 2017, "permit_address": "4991 NARVAEZ AV", "permit_units": 1.0, "permit_category": "SU"}}, {"type": "Feature", "geometry": {"type": "Point", "coordinates": [-121.813314999987, 37.2561699997457]}, "properties": {"permit_year": 2017, "permit_address": "86 HAYES AV", "permit_units": 1.0, "permit_category": "SU"}}, {"type": "Feature", "geometry": {"type": "Point", "coordinates": [-121.875538999725, 37.4039379999388]}, "properties": {"permit_year": 2017, "permit_address": "1849 BABE RUTH CT", "permit_units": 1.0, "permit_category": "SU"}}, {"type": "Feature", "geometry": {"type": "Point", "coordinates": [-121.884725999805, 37.3581619996766]}, "properties": {"permit_year": 2017, "permit_address": "760 17TH ST", "permit_units": 1.0, "permit_category": "SF"}}, {"type": "Feature", "geometry": {"type": "Point", "coordinates": [-121.816495000044, 37.3092319996571]}, "properties": {"permit_year": 2017, "permit_address": "2951 TOWERS LN", "permit_units": 1.0, "permit_category": "SF"}}, {"type": "Feature", "geometry": {"type": "Point", "coordinates": [-121.813941000077, 37.3592979999028]}, "properties": {"permit_year": 2017, "permit_address": "3250 STORY RD", "permit_units": 1.0, "permit_category": "SU"}}, {"type": "Feature", "geometry": {"type": "Point", "coordinates": [-121.865745302604, 37.3667731899308]}, "properties": {"permit_year": 2017, "permit_address": "1804 SLATE PL", "permit_units": 7.0, "permit_category": "5+"}}, {"type": "Feature", "geometry": {"type": "Point", "coordinates": [-121.865201717285, 37.3665390712212]}, "properties": {"permit_year": 2017, "permit_address": "1805 SABLE PL", "permit_units": 7.0, "permit_category": "5+"}}, {"type": "Feature", "geometry": {"type": "Point", "coordinates": [-121.867162000126, 37.3647599999741]}, "properties": {"permit_year": 2017, "permit_address": "1807 DOBBIN DR", "permit_units": 7.0, "permit_category": "5+"}}, {"type": "Feature", "geometry": {"type": "Point", "coordinates": [-121.879616944966, 37.3719840696092]}, "properties": {"permit_year": 2017, "permit_address": "1022 ONOFRIO Lane", "permit_units": 7.0, "permit_category": "5+"}}, {"type": "Feature", "geometry": {"type": "Point", "coordinates": [-121.879096144871, 37.3720497183199]}, "properties": {"permit_year": 2017, "permit_address": "1026 ABRUZZO Lane", "permit_units": 7.0, "permit_category": "5+"}}, {"type": "Feature", "geometry": {"type": "Point", "coordinates": [-121.879085416858, 37.3720241389029]}, "properties": {"permit_year": 2017, "permit_address": "1023 ABRUZZO Lane", "permit_units": 7.0, "permit_category": "5+"}}, {"type": "Feature", "geometry": {"type": "Point", "coordinates": [-121.912235000345, 37.3376449996171]}, "properties": {"permit_year": 2017, "permit_address": "797 HARDING AV", "permit_units": 1.0, "permit_category": "SU"}}, {"type": "Feature", "geometry": {"type": "Point", "coordinates": [-121.830035000315, 37.323167000157]}, "properties": {"permit_year": 2017, "permit_address": "2270 BLUEBELL AV", "permit_units": 1.0, "permit_category": "SU"}}, {"type": "Feature", "geometry": {"type": "Point", "coordinates": [-121.844475775936, 37.3573310297033]}, "properties": {"permit_year": 2016, "permit_address": "12 SCHARFF AV", "permit_units": 1.0, "permit_category": "SF"}}, {"type": "Feature", "geometry": {"type": "Point", "coordinates": [-122.34828299996, 37.964540676611]}, "properties": {"permit_year": 2016, "permit_address": "907 DRY CREEK RD", "permit_units": 1.0, "permit_category": "SF"}}, {"type": "Feature", "geometry": {"type": "Point", "coordinates": [-121.772914288963, 37.2368971937506]}, "properties": {"permit_year": 2016, "permit_address": "6887 ROCKTON AV", "permit_units": 1.0, "permit_category": "SU"}}, {"type": "Feature", "geometry": {"type": "Point", "coordinates": [-121.876168499077, 37.2903143925952]}, "properties": {"permit_year": 2016, "permit_address": "1277 BABB CT", "permit_units": 86.0, "permit_category": "5+"}}, {"type": "Feature", "geometry": {"type": "Point", "coordinates": [-121.807335229637, 37.3023234958327]}, "properties": {"permit_year": 2016, "permit_address": "1561 VIA ALEGRIA CT", "permit_units": 1.0, "permit_category": "SU"}}, {"type": "Feature", "geometry": {"type": "Point", "coordinates": [-121.892532365176, 37.3394240258982]}, "properties": {"permit_year": 2016, "permit_address": "3098 EMPOLI ST  Unit: 1", "permit_units": 6.0, "permit_category": "5+"}}, {"type": "Feature", "geometry": {"type": "Point", "coordinates": [-121.892532365176, 37.3394240258982]}, "properties": {"permit_year": 2016, "permit_address": "3096 EMPOLI LN  Unit: 1", "permit_units": 6.0, "permit_category": "5+"}}, {"type": "Feature", "geometry": {"type": "Point", "coordinates": [-121.797462799569, 37.250963399941]}, "properties": {"permit_year": 2016, "permit_address": "438 ELLICOTT LP", "permit_units": 9.0, "permit_category": "5+"}}, {"type": "Feature", "geometry": {"type": "Point", "coordinates": [-121.797462799569, 37.250963399941]}, "properties": {"permit_year": 2016, "permit_address": "401 ELLICOTT LP", "permit_units": 7.0, "permit_category": "5+"}}, {"type": "Feature", "geometry": {"type": "Point", "coordinates": [-121.84493274485, 37.3607047149507]}, "properties": {"permit_year": 2016, "permit_address": "70 JACKSON AV", "permit_units": 4.0, "permit_category": "2 to 4"}}, {"type": "Feature", "geometry": {"type": "Point", "coordinates": [-121.892532365176, 37.3394240258982]}, "properties": {"permit_year": 2016, "permit_address": "3074 LINA ST", "permit_units": 1.0, "permit_category": "SF"}}, {"type": "Feature", "geometry": {"type": "Point", "coordinates": [-121.892532365176, 37.3394240258982]}, "properties": {"permit_year": 2016, "permit_address": "337 ADELINE AV", "permit_units": 1.0, "permit_category": "SF"}}, {"type": "Feature", "geometry": {"type": "Point", "coordinates": [-121.892532365176, 37.3394240258982]}, "properties": {"permit_year": 2016, "permit_address": "331 ADELINE AV", "permit_units": 1.0, "permit_category": "SF"}}, {"type": "Feature", "geometry": {"type": "Point", "coordinates": [-121.892532365176, 37.3394240258982]}, "properties": {"permit_year": 2016, "permit_address": "3068 LINA ST", "permit_units": 1.0, "permit_category": "SF"}}, {"type": "Feature", "geometry": {"type": "Point", "coordinates": [-121.892532365176, 37.3394240258982]}, "properties": {"permit_year": 2016, "permit_address": "3062 LINA ST", "permit_units": 1.0, "permit_category": "SF"}}, {"type": "Feature", "geometry": {"type": "Point", "coordinates": [-121.892532365176, 37.3394240258982]}, "properties": {"permit_year": 2016, "permit_address": "325 ADELINE AV", "permit_units": 1.0, "permit_category": "SF"}}, {"type": "Feature", "geometry": {"type": "Point", "coordinates": [-121.892532365176, 37.3394240258982]}, "properties": {"permit_year": 2016, "permit_address": "343 ADELINE AV", "permit_units": 1.0, "permit_category": "SF"}}, {"type": "Feature", "geometry": {"type": "Point", "coordinates": [-121.892532365176, 37.3394240258982]}, "properties": {"permit_year": 2016, "permit_address": "3080 LINA ST", "permit_units": 1.0, "permit_category": "SF"}}, {"type": "Feature", "geometry": {"type": "Point", "coordinates": [-121.892532365176, 37.3394240258982]}, "properties": {"permit_year": 2016, "permit_address": "3079 MANUEL LP", "permit_units": 1.0, "permit_category": "SF"}}, {"type": "Feature", "geometry": {"type": "Point", "coordinates": [-121.892532365176, 37.3394240258982]}, "properties": {"permit_year": 2016, "permit_address": "3066 LINA LP", "permit_units": 1.0, "permit_category": "SF"}}, {"type": "Feature", "geometry": {"type": "Point", "coordinates": [-121.892532365176, 37.3394240258982]}, "properties": {"permit_year": 2016, "permit_address": "3072 LINA LP", "permit_units": 1.0, "permit_category": "SF"}}, {"type": "Feature", "geometry": {"type": "Point", "coordinates": [-121.892532365176, 37.3394240258982]}, "properties": {"permit_year": 2016, "permit_address": "3078 LINA LP", "permit_units": 1.0, "permit_category": "SF"}}, {"type": "Feature", "geometry": {"type": "Point", "coordinates": [-121.892532365176, 37.3394240258982]}, "properties": {"permit_year": 2016, "permit_address": "3056 LINA ST", "permit_units": 1.0, "permit_category": "SF"}}, {"type": "Feature", "geometry": {"type": "Point", "coordinates": [-121.892532365176, 37.3394240258982]}, "properties": {"permit_year": 2016, "permit_address": "3060 LINA LP", "permit_units": 1.0, "permit_category": "SF"}}, {"type": "Feature", "geometry": {"type": "Point", "coordinates": [-121.892532365176, 37.3394240258982]}, "properties": {"permit_year": 2016, "permit_address": "3052 LINA LP", "permit_units": 1.0, "permit_category": "SF"}}, {"type": "Feature", "geometry": {"type": "Point", "coordinates": [-121.892532365176, 37.3394240258982]}, "properties": {"permit_year": 2016, "permit_address": "3055 MANUEL LP", "permit_units": 1.0, "permit_category": "SF"}}, {"type": "Feature", "geometry": {"type": "Point", "coordinates": [-121.892532365176, 37.3394240258982]}, "properties": {"permit_year": 2016, "permit_address": "3053 MANUEL ST", "permit_units": 1.0, "permit_category": "SF"}}, {"type": "Feature", "geometry": {"type": "Point", "coordinates": [-121.892532365176, 37.3394240258982]}, "properties": {"permit_year": 2016, "permit_address": "3065 MANUEL ST", "permit_units": 1.0, "permit_category": "SF"}}, {"type": "Feature", "geometry": {"type": "Point", "coordinates": [-121.892532365176, 37.3394240258982]}, "properties": {"permit_year": 2016, "permit_address": "3059 MANUEL ST", "permit_units": 1.0, "permit_category": "SF"}}, {"type": "Feature", "geometry": {"type": "Point", "coordinates": [-121.892532365176, 37.3394240258982]}, "properties": {"permit_year": 2016, "permit_address": "3061 MANUEL LP", "permit_units": 1.0, "permit_category": "SF"}}, {"type": "Feature", "geometry": {"type": "Point", "coordinates": [-121.892532365176, 37.3394240258982]}, "properties": {"permit_year": 2016, "permit_address": "3073 MANUEL LP", "permit_units": 1.0, "permit_category": "SF"}}, {"type": "Feature", "geometry": {"type": "Point", "coordinates": [-121.892532365176, 37.3394240258982]}, "properties": {"permit_year": 2016, "permit_address": "3067 MANUEL LP", "permit_units": 1.0, "permit_category": "SF"}}, {"type": "Feature", "geometry": {"type": "Point", "coordinates": [-121.892532365176, 37.3394240258982]}, "properties": {"permit_year": 2016, "permit_address": "3077 MANUEL ST", "permit_units": 1.0, "permit_category": "SF"}}, {"type": "Feature", "geometry": {"type": "Point", "coordinates": [-121.892532365176, 37.3394240258982]}, "properties": {"permit_year": 2016, "permit_address": "3071 MANUEL ST", "permit_units": 1.0, "permit_category": "SF"}}, {"type": "Feature", "geometry": {"type": "Point", "coordinates": [-121.892532365176, 37.3394240258982]}, "properties": {"permit_year": 2016, "permit_address": "3090 EMPOLI ST", "permit_units": 6.0, "permit_category": "5+"}}, {"type": "Feature", "geometry": {"type": "Point", "coordinates": [-121.892532365176, 37.3394240258982]}, "properties": {"permit_year": 2016, "permit_address": "3097 LINA ST", "permit_units": 6.0, "permit_category": "5+"}}, {"type": "Feature", "geometry": {"type": "Point", "coordinates": [-121.892532365176, 37.3394240258982]}, "properties": {"permit_year": 2016, "permit_address": "3091 LINA ST", "permit_units": 6.0, "permit_category": "5+"}}, {"type": "Feature", "geometry": {"type": "Point", "coordinates": [-121.892532365176, 37.3394240258982]}, "properties": {"permit_year": 2016, "permit_address": "3093 LINA LN", "permit_units": 6.0, "permit_category": "5+"}}, {"type": "Feature", "geometry": {"type": "Point", "coordinates": [-121.892532365176, 37.3394240258982]}, "properties": {"permit_year": 2016, "permit_address": "3099 LINA LN", "permit_units": 6.0, "permit_category": "5+"}}, {"type": "Feature", "geometry": {"type": "Point", "coordinates": [-121.892532365176, 37.3394240258982]}, "properties": {"permit_year": 2016, "permit_address": "3088 EMPOLI LN", "permit_units": 6.0, "permit_category": "5+"}}, {"type": "Feature", "geometry": {"type": "Point", "coordinates": [-121.905230737608, 37.2244485531583]}, "properties": {"permit_year": 2016, "permit_address": "6039 GUADALUPE MINES RD", "permit_units": 1.0, "permit_category": "SF"}}, {"type": "Feature", "geometry": {"type": "Point", "coordinates": [-121.905230737608, 37.2244485531583]}, "properties": {"permit_year": 2016, "permit_address": "6033 GUADALUPE MINES RD", "permit_units": 1.0, "permit_category": "SF"}}, {"type": "Feature", "geometry": {"type": "Point", "coordinates": [-121.905230737608, 37.2244485531583]}, "properties": {"permit_year": 2016, "permit_address": "6027 GUADALUPE MINES RD", "permit_units": 1.0, "permit_category": "SF"}}, {"type": "Feature", "geometry": {"type": "Point", "coordinates": [-121.905230737608, 37.2244485531583]}, "properties": {"permit_year": 2016, "permit_address": "6021 GUADALUPE MINES RD", "permit_units": 1.0, "permit_category": "SF"}}, {"type": "Feature", "geometry": {"type": "Point", "coordinates": [-121.905230737608, 37.2244485531583]}, "properties": {"permit_year": 2016, "permit_address": "6015 GUADALUPE MINES RD", "permit_units": 1.0, "permit_category": "SF"}}, {"type": "Feature", "geometry": {"type": "Point", "coordinates": [-121.797462799569, 37.250963399941]}, "properties": {"permit_year": 2016, "permit_address": "349 ELLICOTT LP", "permit_units": 7.0, "permit_category": "5+"}}, {"type": "Feature", "geometry": {"type": "Point", "coordinates": [-121.797462799569, 37.250963399941]}, "properties": {"permit_year": 2016, "permit_address": "301 ELLICOTT LP", "permit_units": 8.0, "permit_category": "5+"}}, {"type": "Feature", "geometry": {"type": "Point", "coordinates": [-121.797462799569, 37.250963399941]}, "properties": {"permit_year": 2016, "permit_address": "402 ELLICOTT LP", "permit_units": 12.0, "permit_category": "5+"}}, {"type": "Feature", "geometry": {"type": "Point", "coordinates": [-121.796527057678, 37.2505647619543]}, "properties": {"permit_year": 2016, "permit_address": "301 FLINDER PL", "permit_units": 12.0, "permit_category": "5+"}}, {"type": "Feature", "geometry": {"type": "Point", "coordinates": [-121.976513503096, 37.3056531448768]}, "properties": {"permit_year": 2016, "permit_address": "4151 PIPER DR", "permit_units": 1.0, "permit_category": "SU"}}, {"type": "Feature", "geometry": {"type": "Point", "coordinates": [-121.851830900176, 37.2928976996691]}, "properties": {"permit_year": 2016, "permit_address": "2720 GOBLE LN", "permit_units": 6.0, "permit_category": "5+"}}, {"type": "Feature", "geometry": {"type": "Point", "coordinates": [-121.85224290029, 37.2932367000137]}, "properties": {"permit_year": 2016, "permit_address": "3 ESFAHAN DR", "permit_units": 4.0, "permit_category": "2 to 4"}}, {"type": "Feature", "geometry": {"type": "Point", "coordinates": [-121.851830900176, 37.2928976996691]}, "properties": {"permit_year": 2016, "permit_address": "2738 GOBLE LN", "permit_units": 6.0, "permit_category": "5+"}}, {"type": "Feature", "geometry": {"type": "Point", "coordinates": [-121.851830900176, 37.2928976996691]}, "properties": {"permit_year": 2016, "permit_address": "2756 GOBLE LN", "permit_units": 6.0, "permit_category": "5+"}}, {"type": "Feature", "geometry": {"type": "Point", "coordinates": [-121.86626932407, 37.3666818296028]}, "properties": {"permit_year": 2016, "permit_address": "602 OBSIDIAN DR", "permit_units": 11.0, "permit_category": "5+"}}, {"type": "Feature", "geometry": {"type": "Point", "coordinates": [-121.86626932407, 37.3666818296028]}, "properties": {"permit_year": 2016, "permit_address": "1851 DOBBIN DR", "permit_units": 14.0, "permit_category": "5+"}}, {"type": "Feature", "geometry": {"type": "Point", "coordinates": [-121.86626932407, 37.3666818296028]}, "properties": {"permit_year": 2016, "permit_address": "1809 NEWBURY PARK DR", "permit_units": 9.0, "permit_category": "5+"}}, {"type": "Feature", "geometry": {"type": "Point", "coordinates": [-121.86626932407, 37.3666818296028]}, "properties": {"permit_year": 2016, "permit_address": "1863 NEWBURY PARK DR", "permit_units": 7.0, "permit_category": "5+"}}, {"type": "Feature", "geometry": {"type": "Point", "coordinates": [-121.834640186595, 37.2863513609266]}, "properties": {"permit_year": 2016, "permit_address": "13160 POTTS DR", "permit_units": 1.0, "permit_category": "SU"}}, {"type": "Feature", "geometry": {"type": "Point", "coordinates": [-121.8695436756, 37.3532528812156]}, "properties": {"permit_year": 2016, "permit_address": "329 WOOSTER AV", "permit_units": 1.0, "permit_category": "SF"}}, {"type": "Feature", "geometry": {"type": "Point", "coordinates": [-121.842697847727, 37.3852646532412]}, "properties": {"permit_year": 2016, "permit_address": "732 OMEGA CT", "permit_units": 1.0, "permit_category": "SU"}}, {"type": "Feature", "geometry": {"type": "Point", "coordinates": [-121.967295434137, 37.3081555750198]}, "properties": {"permit_year": 2016, "permit_address": "3766 WILLIAMS RD", "permit_units": 1.0, "permit_category": "SU"}}, {"type": "Feature", "geometry": {"type": "Point", "coordinates": [-121.878486586187, 37.3144599592598]}, "properties": {"permit_year": 2016, "permit_address": "1330 ALMADEN AV", "permit_units": 2.0, "permit_category": "2 to 4"}}, {"type": "Feature", "geometry": {"type": "Point", "coordinates": [-121.835401141649, 37.2524715189455]}, "properties": {"permit_year": 2016, "permit_address": "479 AGORA CT", "permit_units": 1.0, "permit_category": "SF"}}, {"type": "Feature", "geometry": {"type": "Point", "coordinates": [-121.835401141649, 37.2524715189455]}, "properties": {"permit_year": 2016, "permit_address": "476 AGORA CT", "permit_units": 1.0, "permit_category": "SF"}}, {"type": "Feature", "geometry": {"type": "Point", "coordinates": [-121.835401141649, 37.2524715189455]}, "properties": {"permit_year": 2016, "permit_address": "470 AGORA CT", "permit_units": 1.0, "permit_category": "SF"}}, {"type": "Feature", "geometry": {"type": "Point", "coordinates": [-121.835401141649, 37.2524715189455]}, "properties": {"permit_year": 2016, "permit_address": "485 AGORA CT", "permit_units": 1.0, "permit_category": "SF"}}, {"type": "Feature", "geometry": {"type": "Point", "coordinates": [-121.835401141649, 37.2524715189455]}, "properties": {"permit_year": 2016, "permit_address": "473 AGORA CT", "permit_units": 1.0, "permit_category": "SF"}}, {"type": "Feature", "geometry": {"type": "Point", "coordinates": [-121.835401141649, 37.2524715189455]}, "properties": {"permit_year": 2016, "permit_address": "491 AGORA CT", "permit_units": 1.0, "permit_category": "SF"}}, {"type": "Feature", "geometry": {"type": "Point", "coordinates": [-121.835401141649, 37.2524715189455]}, "properties": {"permit_year": 2016, "permit_address": "482 AGORA CT", "permit_units": 1.0, "permit_category": "SF"}}, {"type": "Feature", "geometry": {"type": "Point", "coordinates": [-121.835401141649, 37.2524715189455]}, "properties": {"permit_year": 2016, "permit_address": "488 AGORA CT", "permit_units": 1.0, "permit_category": "SF"}}, {"type": "Feature", "geometry": {"type": "Point", "coordinates": [-121.866763741653, 37.3680115671801]}, "properties": {"permit_year": 2016, "permit_address": "12410 MABURY RD", "permit_units": 1.0, "permit_category": "SF"}}, {"type": "Feature", "geometry": {"type": "Point", "coordinates": [-121.935893863811, 37.2995633262865]}, "properties": {"permit_year": 2016, "permit_address": "531 PAMLAR AV", "permit_units": 1.0, "permit_category": "SU"}}, {"type": "Feature", "geometry": {"type": "Point", "coordinates": [-121.870569551144, 37.2316009881951]}, "properties": {"permit_year": 2016, "permit_address": "1097 JAYDEN LN", "permit_units": 1.0, "permit_category": "SF"}}, {"type": "Feature", "geometry": {"type": "Point", "coordinates": [-121.870569551144, 37.2316009881951]}, "properties": {"permit_year": 2016, "permit_address": "1091 JAYDEN LN", "permit_units": 1.0, "permit_category": "SF"}}, {"type": "Feature", "geometry": {"type": "Point", "coordinates": [-121.870538995778, 37.2316336021091]}, "properties": {"permit_year": 2016, "permit_address": "1098 JAYDEN LN", "permit_units": 1.0, "permit_category": "SF"}}, {"type": "Feature", "geometry": {"type": "Point", "coordinates": [-121.870569551144, 37.2316009881951]}, "properties": {"permit_year": 2016, "permit_address": "1086 JAYDEN LN", "permit_units": 1.0, "permit_category": "SF"}}, {"type": "Feature", "geometry": {"type": "Point", "coordinates": [-121.870569551144, 37.2316009881951]}, "properties": {"permit_year": 2016, "permit_address": "1085 JAYDEN LN", "permit_units": 1.0, "permit_category": "SF"}}, {"type": "Feature", "geometry": {"type": "Point", "coordinates": [-121.870569551144, 37.2316009881951]}, "properties": {"permit_year": 2016, "permit_address": "1092 JAYDEN LN", "permit_units": 1.0, "permit_category": "SF"}}, {"type": "Feature", "geometry": {"type": "Point", "coordinates": [-121.902367688318, 37.2980382100954]}, "properties": {"permit_year": 2016, "permit_address": "1535 LUPTON AV", "permit_units": 1.0, "permit_category": "SF"}}, {"type": "Feature", "geometry": {"type": "Point", "coordinates": [-121.760033599671, 37.285329699606]}, "properties": {"permit_year": 2016, "permit_address": "2683 GAYLEY PL", "permit_units": 1.0, "permit_category": "SF"}}, {"type": "Feature", "geometry": {"type": "Point", "coordinates": [-121.892705999982, 37.3182900000835]}, "properties": {"permit_year": 2016, "permit_address": "868 DELMAS AV", "permit_units": 1.0, "permit_category": "SF"}}, {"type": "Feature", "geometry": {"type": "Point", "coordinates": [-121.878693899704, 37.3730770004033]}, "properties": {"permit_year": 2016, "permit_address": "1659 MERCADO WY", "permit_units": 1.0, "permit_category": "SF"}}, {"type": "Feature", "geometry": {"type": "Point", "coordinates": [-121.878693899704, 37.3730770004033]}, "properties": {"permit_year": 2016, "permit_address": "1655 MERCADO WY", "permit_units": 1.0, "permit_category": "SF"}}, {"type": "Feature", "geometry": {"type": "Point", "coordinates": [-121.767230272359, 37.3327344035699]}, "properties": {"permit_year": 2016, "permit_address": "3866 VISTA POINT Ct", "permit_units": 1.0, "permit_category": "SF"}}, {"type": "Feature", "geometry": {"type": "Point", "coordinates": [-121.892532365176, 37.3394240258982]}, "properties": {"permit_year": 2016, "permit_address": "3006 MANUEL ST", "permit_units": 1.0, "permit_category": "SF"}}, {"type": "Feature", "geometry": {"type": "Point", "coordinates": [-121.892532365176, 37.3394240258982]}, "properties": {"permit_year": 2016, "permit_address": "3018 MANUEL ST", "permit_units": 1.0, "permit_category": "SF"}}, {"type": "Feature", "geometry": {"type": "Point", "coordinates": [-121.892532365176, 37.3394240258982]}, "properties": {"permit_year": 2016, "permit_address": "3012 MANUEL ST", "permit_units": 1.0, "permit_category": "SF"}}, {"type": "Feature", "geometry": {"type": "Point", "coordinates": [-121.892532365176, 37.3394240258982]}, "properties": {"permit_year": 2016, "permit_address": "285 WILLIAM MANLY ST", "permit_units": 1.0, "permit_category": "SF"}}, {"type": "Feature", "geometry": {"type": "Point", "coordinates": [-121.892532365176, 37.3394240258982]}, "properties": {"permit_year": 2016, "permit_address": "289 WILLIAM MANLY ST", "permit_units": 1.0, "permit_category": "SF"}}, {"type": "Feature", "geometry": {"type": "Point", "coordinates": [-121.892532365176, 37.3394240258982]}, "properties": {"permit_year": 2016, "permit_address": "293 WILLIAM MANLY ST", "permit_units": 1.0, "permit_category": "SF"}}, {"type": "Feature", "geometry": {"type": "Point", "coordinates": [-121.892532365176, 37.3394240258982]}, "properties": {"permit_year": 2016, "permit_address": "3024 MANUEL ST", "permit_units": 1.0, "permit_category": "SF"}}, {"type": "Feature", "geometry": {"type": "Point", "coordinates": [-121.892532365176, 37.3394240258982]}, "properties": {"permit_year": 2016, "permit_address": "297 WILLIAM MANLY ST", "permit_units": 1.0, "permit_category": "SF"}}, {"type": "Feature", "geometry": {"type": "Point", "coordinates": [-121.839251901054, 37.375397926673]}, "properties": {"permit_year": 2016, "permit_address": "2983 KENTRIDGE DR", "permit_units": 1.0, "permit_category": "SU"}}, {"type": "Feature", "geometry": {"type": "Point", "coordinates": [-121.869618373289, 37.2656011576673]}, "properties": {"permit_year": 2016, "permit_address": "951 BRANHAM LN", "permit_units": 5.0, "permit_category": "5+"}}, {"type": "Feature", "geometry": {"type": "Point", "coordinates": [-121.858968591727, 37.3447236929441]}, "properties": {"permit_year": 2016, "permit_address": "330 BONITA AV", "permit_units": 1.0, "permit_category": "SU"}}, {"type": "Feature", "geometry": {"type": "Point", "coordinates": [-121.869618373289, 37.2656011576673]}, "properties": {"permit_year": 2016, "permit_address": "4567 HUNTINGTON LN", "permit_units": 5.0, "permit_category": "5+"}}, {"type": "Feature", "geometry": {"type": "Point", "coordinates": [-121.869618373289, 37.2656011576673]}, "properties": {"permit_year": 2016, "permit_address": "4507 HUNTINGTON LN", "permit_units": 5.0, "permit_category": "5+"}}, {"type": "Feature", "geometry": {"type": "Point", "coordinates": [-121.869618373289, 37.2656011576673]}, "properties": {"permit_year": 2016, "permit_address": "4527 HUNTINGTON LN", "permit_units": 5.0, "permit_category": "5+"}}, {"type": "Feature", "geometry": {"type": "Point", "coordinates": [-121.869618373289, 37.2656011576673]}, "properties": {"permit_year": 2016, "permit_address": "4551 HUNTINGTON LN", "permit_units": 4.0, "permit_category": "2 to 4"}}, {"type": "Feature", "geometry": {"type": "Point", "coordinates": [-121.764429000198, 37.274434000229]}, "properties": {"permit_year": 2016, "permit_address": "2056 BIARRITZ PL", "permit_units": 1.0, "permit_category": "SF"}}, {"type": "Feature", "geometry": {"type": "Point", "coordinates": [-121.912377540191, 37.2443273969918]}, "properties": {"permit_year": 2016, "permit_address": "5170 HARWOOD RD", "permit_units": 1.0, "permit_category": "SF"}}, {"type": "Feature", "geometry": {"type": "Point", "coordinates": [-121.922388337252, 37.3174336431481]}, "properties": {"permit_year": 2016, "permit_address": "570 RICHMOND AV", "permit_units": 1.0, "permit_category": "SU"}}, {"type": "Feature", "geometry": {"type": "Point", "coordinates": [-121.872607699985, 37.3052333998016]}, "properties": {"permit_year": 2016, "permit_address": "1833 LITTLE ORCHARD ST", "permit_units": 1.0, "permit_category": "SF"}}, {"type": "Feature", "geometry": {"type": "Point", "coordinates": [-121.855405253849, 37.274128255015]}, "properties": {"permit_year": 2016, "permit_address": "3913 LUX CT", "permit_units": 1.0, "permit_category": "SU"}}, {"type": "Feature", "geometry": {"type": "Point", "coordinates": [-121.909242267017, 37.2984063610647]}, "properties": {"permit_year": 2016, "permit_address": "1485 RICHARDS AV", "permit_units": 1.0, "permit_category": "SU"}}, {"type": "Feature", "geometry": {"type": "Point", "coordinates": [-121.890226099655, 37.2983470004138]}, "properties": {"permit_year": 2016, "permit_address": "1010 FAIRVIEW AV", "permit_units": 1.0, "permit_category": "SF"}}, {"type": "Feature", "geometry": {"type": "Point", "coordinates": [-121.887796360813, 37.3272547758872]}, "properties": {"permit_year": 2016, "permit_address": "180 BALBACH ST", "permit_units": 101.0, "permit_category": "5+"}}, {"type": "Feature", "geometry": {"type": "Point", "coordinates": [-121.855572999894, 37.1981549998534]}, "properties": {"permit_year": 2016, "permit_address": "7280 GLENVIEW DR", "permit_units": 1.0, "permit_category": "SF"}}, {"type": "Feature", "geometry": {"type": "Point", "coordinates": [-121.852932316973, 37.4077815611702]}, "properties": {"permit_year": 2016, "permit_address": "1494 SIERRA CREEK WY", "permit_units": 1.0, "permit_category": "SF"}}, {"type": "Feature", "geometry": {"type": "Point", "coordinates": [-121.852932316973, 37.4077815611702]}, "properties": {"permit_year": 2016, "permit_address": "1493 STONE CREEK DR", "permit_units": 1.0, "permit_category": "SF"}}, {"type": "Feature", "geometry": {"type": "Point", "coordinates": [-121.852932316973, 37.4077815611702]}, "properties": {"permit_year": 2016, "permit_address": "1499 STONE CREEK DR", "permit_units": 1.0, "permit_category": "SF"}}, {"type": "Feature", "geometry": {"type": "Point", "coordinates": [-121.852932316973, 37.4077815611702]}, "properties": {"permit_year": 2016, "permit_address": "1498 SIERRA CREEK WY", "permit_units": 1.0, "permit_category": "SF"}}, {"type": "Feature", "geometry": {"type": "Point", "coordinates": [-121.852932316973, 37.4077815611702]}, "properties": {"permit_year": 2016, "permit_address": "1497 STONE CREEK DR", "permit_units": 1.0, "permit_category": "SF"}}, {"type": "Feature", "geometry": {"type": "Point", "coordinates": [-121.852932316973, 37.4077815611702]}, "properties": {"permit_year": 2016, "permit_address": "1496 SIERRA CREEK WY", "permit_units": 1.0, "permit_category": "SF"}}, {"type": "Feature", "geometry": {"type": "Point", "coordinates": [-121.892532365176, 37.3394240258982]}, "properties": {"permit_year": 2016, "permit_address": "277 WILLIAM MANLY ST", "permit_units": 1.0, "permit_category": "SF"}}, {"type": "Feature", "geometry": {"type": "Point", "coordinates": [-121.892532365176, 37.3394240258982]}, "properties": {"permit_year": 2016, "permit_address": "281 WILLIAM MANLY ST", "permit_units": 1.0, "permit_category": "SF"}}, {"type": "Feature", "geometry": {"type": "Point", "coordinates": [-121.892532365176, 37.3394240258982]}, "properties": {"permit_year": 2016, "permit_address": "3011 JAYHAWKERS PL", "permit_units": 1.0, "permit_category": "SF"}}, {"type": "Feature", "geometry": {"type": "Point", "coordinates": [-121.892532365176, 37.3394240258982]}, "properties": {"permit_year": 2016, "permit_address": "3017 JAYHAWKERS PL", "permit_units": 1.0, "permit_category": "SF"}}, {"type": "Feature", "geometry": {"type": "Point", "coordinates": [-121.892532365176, 37.3394240258982]}, "properties": {"permit_year": 2016, "permit_address": "3023 JAYHAWKERS PL", "permit_units": 1.0, "permit_category": "SF"}}, {"type": "Feature", "geometry": {"type": "Point", "coordinates": [-121.892532365176, 37.3394240258982]}, "properties": {"permit_year": 2016, "permit_address": "269 WILLIAM MANLY ST", "permit_units": 1.0, "permit_category": "SF"}}, {"type": "Feature", "geometry": {"type": "Point", "coordinates": [-121.892532365176, 37.3394240258982]}, "properties": {"permit_year": 2016, "permit_address": "3005 JAYHAWKERS PL", "permit_units": 1.0, "permit_category": "SF"}}, {"type": "Feature", "geometry": {"type": "Point", "coordinates": [-121.892532365176, 37.3394240258982]}, "properties": {"permit_year": 2016, "permit_address": "273 WILLIAM MANLY ST", "permit_units": 1.0, "permit_category": "SF"}}, {"type": "Feature", "geometry": {"type": "Point", "coordinates": [-121.892532365176, 37.3394240258982]}, "properties": {"permit_year": 2016, "permit_address": "286 WILLIAM MANLY ST", "permit_units": 5.0, "permit_category": "5+"}}, {"type": "Feature", "geometry": {"type": "Point", "coordinates": [-121.892532365176, 37.3394240258982]}, "properties": {"permit_year": 2016, "permit_address": "3086 MANUEL ST", "permit_units": 5.0, "permit_category": "5+"}}, {"type": "Feature", "geometry": {"type": "Point", "coordinates": [-121.881755701864, 37.2872085245538]}, "properties": {"permit_year": 2016, "permit_address": "973 ALMADEN LN", "permit_units": 3.0, "permit_category": "2 to 4"}}, {"type": "Feature", "geometry": {"type": "Point", "coordinates": [-121.881755701864, 37.2872085245538]}, "properties": {"permit_year": 2016, "permit_address": "997 ALMADEN LN", "permit_units": 4.0, "permit_category": "2 to 4"}}, {"type": "Feature", "geometry": {"type": "Point", "coordinates": [-121.881755701864, 37.2872085245538]}, "properties": {"permit_year": 2016, "permit_address": "956 ALMADEN LN", "permit_units": 4.0, "permit_category": "2 to 4"}}, {"type": "Feature", "geometry": {"type": "Point", "coordinates": [-121.881755701864, 37.2872085245538]}, "properties": {"permit_year": 2016, "permit_address": "972 ALMADEN LN", "permit_units": 4.0, "permit_category": "2 to 4"}}, {"type": "Feature", "geometry": {"type": "Point", "coordinates": [-121.881755701864, 37.2872085245538]}, "properties": {"permit_year": 2016, "permit_address": "955 ALMADEN LN", "permit_units": 4.0, "permit_category": "2 to 4"}}, {"type": "Feature", "geometry": {"type": "Point", "coordinates": [-121.881755701864, 37.2872085245538]}, "properties": {"permit_year": 2016, "permit_address": "998 ALMADEN LN", "permit_units": 5.0, "permit_category": "5+"}}, {"type": "Feature", "geometry": {"type": "Point", "coordinates": [-121.757592669666, 37.2932514273116]}, "properties": {"permit_year": 2016, "permit_address": "3031 KING ESTATES", "permit_units": 1.0, "permit_category": "SU"}}, {"type": "Feature", "geometry": {"type": "Point", "coordinates": [-121.840454675043, 37.2480273940491]}, "properties": {"permit_year": 2016, "permit_address": "622 IROQUOIS CT", "permit_units": 1.0, "permit_category": "SU"}}, {"type": "Feature", "geometry": {"type": "Point", "coordinates": [-121.892532365176, 37.3394240258982]}, "properties": {"permit_year": 2016, "permit_address": "3009 JAYHAWKERS PL", "permit_units": 1.0, "permit_category": "SF"}}, {"type": "Feature", "geometry": {"type": "Point", "coordinates": [-121.892532365176, 37.3394240258982]}, "properties": {"permit_year": 2016, "permit_address": "3003 JAYHAWKERS PL", "permit_units": 1.0, "permit_category": "SF"}}, {"type": "Feature", "geometry": {"type": "Point", "coordinates": [-121.892532365176, 37.3394240258982]}, "properties": {"permit_year": 2016, "permit_address": "262 LLANO DE LOS ROBLES AV", "permit_units": 1.0, "permit_category": "SF"}}, {"type": "Feature", "geometry": {"type": "Point", "coordinates": [-121.892532365176, 37.3394240258982]}, "properties": {"permit_year": 2016, "permit_address": "272 LLANO DE LOS ROBLES AV", "permit_units": 1.0, "permit_category": "SF"}}, {"type": "Feature", "geometry": {"type": "Point", "coordinates": [-121.892532365176, 37.3394240258982]}, "properties": {"permit_year": 2016, "permit_address": "268 LLANO DE LOS ROBLES AV", "permit_units": 1.0, "permit_category": "SF"}}, {"type": "Feature", "geometry": {"type": "Point", "coordinates": [-121.892532365176, 37.3394240258982]}, "properties": {"permit_year": 2016, "permit_address": "256 LLANO DE LOS ROBLES AV", "permit_units": 1.0, "permit_category": "SF"}}, {"type": "Feature", "geometry": {"type": "Point", "coordinates": [-121.853393911999, 37.2844571063105]}, "properties": {"permit_year": 2016, "permit_address": "3015 JAYHAWKERS PL", "permit_units": 1.0, "permit_category": "SF"}}, {"type": "Feature", "geometry": {"type": "Point", "coordinates": [-121.892532365176, 37.3394240258982]}, "properties": {"permit_year": 2016, "permit_address": "3021 JAYHAWKERS PL", "permit_units": 1.0, "permit_category": "SF"}}, {"type": "Feature", "geometry": {"type": "Point", "coordinates": [-121.892532365176, 37.3394240258982]}, "properties": {"permit_year": 2016, "permit_address": "3005 VALLEY OF HEARTS DELIGHT PL", "permit_units": 1.0, "permit_category": "SF"}}, {"type": "Feature", "geometry": {"type": "Point", "coordinates": [-121.892532365176, 37.3394240258982]}, "properties": {"permit_year": 2016, "permit_address": "3011 VALLEY OF HEARTS DELIGHT PL", "permit_units": 1.0, "permit_category": "SF"}}, {"type": "Feature", "geometry": {"type": "Point", "coordinates": [-121.892532365176, 37.3394240258982]}, "properties": {"permit_year": 2016, "permit_address": "102 LLANO DE LOS ROBLES AV", "permit_units": 1.0, "permit_category": "SF"}}, {"type": "Feature", "geometry": {"type": "Point", "coordinates": [-121.892532365176, 37.3394240258982]}, "properties": {"permit_year": 2016, "permit_address": "120 LLANO DE LOS ROBLES AV", "permit_units": 1.0, "permit_category": "SF"}}, {"type": "Feature", "geometry": {"type": "Point", "coordinates": [-121.899866998363, 37.244559048861]}, "properties": {"permit_year": 2016, "permit_address": "1555 BRENNER WY", "permit_units": 1.0, "permit_category": "SU"}}, {"type": "Feature", "geometry": {"type": "Point", "coordinates": [-121.977321800261, 37.3107379000341]}, "properties": {"permit_year": 2016, "permit_address": "4168 OLGA DR", "permit_units": 1.0, "permit_category": "SF"}}, {"type": "Feature", "geometry": {"type": "Point", "coordinates": [-121.977352500418, 37.3107394001033]}, "properties": {"permit_year": 2016, "permit_address": "4176 OLGA DR", "permit_units": 1.0, "permit_category": "SF"}}, {"type": "Feature", "geometry": {"type": "Point", "coordinates": [-121.976532590307, 37.3103405516752]}, "properties": {"permit_year": 2016, "permit_address": "918 FELICIDAD CT", "permit_units": 1.0, "permit_category": "SF"}}, {"type": "Feature", "geometry": {"type": "Point", "coordinates": [-121.976532590307, 37.3103405516752]}, "properties": {"permit_year": 2016, "permit_address": "933 FELICIDAD CT", "permit_units": 1.0, "permit_category": "SF"}}, {"type": "Feature", "geometry": {"type": "Point", "coordinates": [-121.976532590307, 37.3103405516752]}, "properties": {"permit_year": 2016, "permit_address": "926 FELICIDAD CT", "permit_units": 1.0, "permit_category": "SF"}}, {"type": "Feature", "geometry": {"type": "Point", "coordinates": [-121.802785300401, 37.3707350003201]}, "properties": {"permit_year": 2016, "permit_address": "775 ROSEMAR CT", "permit_units": 1.0, "permit_category": "SF"}}, {"type": "Feature", "geometry": {"type": "Point", "coordinates": [-121.803305015014, 37.3709981563399]}, "properties": {"permit_year": 2016, "permit_address": "793 ROSEMAR CT", "permit_units": 1.0, "permit_category": "SF"}}, {"type": "Feature", "geometry": {"type": "Point", "coordinates": [-121.803450993868, 37.3711917956649]}, "properties": {"permit_year": 2016, "permit_address": "787 ROSEMAR CT", "permit_units": 1.0, "permit_category": "SF"}}, {"type": "Feature", "geometry": {"type": "Point", "coordinates": [-121.802785300401, 37.3707350003201]}, "properties": {"permit_year": 2016, "permit_address": "799 ROSEMAR CT", "permit_units": 1.0, "permit_category": "SF"}}, {"type": "Feature", "geometry": {"type": "Point", "coordinates": [-121.802990796388, 37.3709009234389]}, "properties": {"permit_year": 2016, "permit_address": "3719 ROSEMAR AV", "permit_units": 1.0, "permit_category": "SF"}}, {"type": "Feature", "geometry": {"type": "Point", "coordinates": [-121.803199543424, 37.3708211967409]}, "properties": {"permit_year": 2016, "permit_address": "3715 ROSEMAR AV", "permit_units": 1.0, "permit_category": "SF"}}, {"type": "Feature", "geometry": {"type": "Point", "coordinates": [-121.919721604568, 37.3398796791039]}, "properties": {"permit_year": 2016, "permit_address": "1015 EMORY ST", "permit_units": 1.0, "permit_category": "SF"}}, {"type": "Feature", "geometry": {"type": "Point", "coordinates": [-121.904537284768, 37.3268147394087]}, "properties": {"permit_year": 2016, "permit_address": "298 LAUREL GROVE LN", "permit_units": 82.0, "permit_category": "5+"}}, {"type": "Feature", "geometry": {"type": "Point", "coordinates": [-121.850046700095, 37.2832651997292]}, "properties": {"permit_year": 2016, "permit_address": "3042 VALLEY OF HEARTS DELIGHT PL", "permit_units": 1.0, "permit_category": "SF"}}, {"type": "Feature", "geometry": {"type": "Point", "coordinates": [-121.850046700095, 37.2832651997292]},