{"type": "FeatureCollection", "features": [{"type": "Feature", "geometry": {"type": "Point", "coordinates": [-122.591939628711, 38.1164160676474]}, "properties": {"permit_year": 2017, "permit_address": null, "permit_units": 1, "permit_category": "SF"}}, {"type": "Feature", "geometry": {"type": "Point", "coordinates": [-122.561173781944, 38.1130481308666]}, "properties": {"permit_year": 2017, "permit_address": null, "permit_units": 1, "permit_category": "SF"}}, {"type": "Feature", "geometry": {"type": "Point", "coordinates": [-122.563385267916, 38.1023542816249]}, "properties": {"permit_year": 2017, "permit_address": null, "permit_units": 1, "permit_category": "SF"}}, {"type": "Feature", "geometry": {"type": "Point", "coordinates": [-122.532437353401, 38.058535678279]}, "properties": {"permit_year": 2017, "permit_address": null, "permit_units": 1, "permit_category": "SF"}}, {"type": "Feature", "geometry": {"type": "Point", "coordinates": [-122.574267302994, 38.0879617753157]}, "properties": {"permit_year": 2017, "permit_address": null, "permit_units": 1, "permit_category": "SU"}}, {"type": "Feature", "geometry": {"type": "Point", "coordinates": [-122.571394078774, 38.0634810106402]}, "properties": {"permit_year": 2017, "permit_address": null, "permit_units": 1, "permit_category": "SU"}}, {"type": "Feature", "geometry": {"type": "Point", "coordinates": [-122.572502628094, 38.1072866295743]}, "properties": {"permit_year": 2017, "permit_address": null, "permit_units": 1, "permit_category": "SU"}}, {"type": "Feature", "geometry": {"type": "Point", "coordinates": [-122.603577468425, 38.1054996433939]}, "properties": {"permit_year": 2016, "permit_address": "675 TRUMBULL AVE", "permit_units": 1, "permit_category": "SF"}}, {"type": "Feature", "geometry": {"type": "Point", "coordinates": [-122.542611855852, 38.1050673950443]}, "properties": {"permit_year": 2016, "permit_address": "10 ROSE CT", "permit_units": 1, "permit_category": "SF"}}, {"type": "Feature", "geometry": {"type": "Point", "coordinates": [-122.605883224931, 38.110347488346]}, "properties": {"permit_year": 2016, "permit_address": "795 EUCALYPTUS AVE", "permit_units": 1, "permit_category": "SF"}}, {"type": "Feature", "geometry": {"type": "Point", "coordinates": [-122.566230971982, 38.1034514581183]}, "properties": {"permit_year": 2016, "permit_address": "822 REICHERT AVE", "permit_units": 1, "permit_category": "SF"}}, {"type": "Feature", "geometry": {"type": "Point", "coordinates": [-122.560411835838, 38.1095670260974]}, "properties": {"permit_year": 2016, "permit_address": "664 OLIVE AVENUE", "permit_units": 1, "permit_category": "SF"}}, {"type": "Feature", "geometry": {"type": "Point", "coordinates": [-122.569870100225, 38.0884465998308]}, "properties": {"permit_year": 2016, "permit_address": "1538 Buchanan St.", "permit_units": 1, "permit_category": "SU"}}, {"type": "Feature", "geometry": {"type": "Point", "coordinates": [-122.575783499709, 38.1044487999722]}, "properties": {"permit_year": 2016, "permit_address": "1635 Novato Blvd.", "permit_units": 1, "permit_category": "SU"}}, {"type": "Feature", "geometry": {"type": "Point", "coordinates": [-122.559755900015, 38.0605295004361]}, "properties": {"permit_year": 2016, "permit_address": "27 Carnoustie Dr.", "permit_units": 1, "permit_category": "SU"}}, {"type": "Feature", "geometry": {"type": "Point", "coordinates": [-122.529184250153, 38.0607095411125]}, "properties": {"permit_year": 2015, "permit_address": "1385 Hamilton Pkwy, Novato, CA 94949", "permit_units": 14, "permit_category": "5+"}}, {"type": "Feature", "geometry": {"type": "Point", "coordinates": [-122.572235648157, 38.1095255160898]}, "properties": {"permit_year": 2015, "permit_address": "1039 2nd St, Novato, CA 94945", "permit_units": 1, "permit_category": "SU"}}, {"type": "Feature", "geometry": {"type": "Point", "coordinates": [-122.589019307895, 38.1209808006235]}, "properties": {"permit_year": 2015, "permit_address": "36 Manzano Ct, Novato, CA 94945", "permit_units": 1, "permit_category": "SU"}}, {"type": "Feature", "geometry": {"type": "Point", "coordinates": [-122.58837425207, 38.1073912899761]}, "properties": {"permit_year": 2015, "permit_address": "840 McClay Rd.", "permit_units": 1, "permit_category": "SF"}}, {"type": "Feature", "geometry": {"type": "Point", "coordinates": [-122.554456456001, 38.1109604266824]}, "properties": {"permit_year": 2015, "permit_address": "12 Zandra Pl.", "permit_units": 1, "permit_category": "SF"}}, {"type": "Feature", "geometry": {"type": "Point", "coordinates": [-122.554576950766, 38.1114950358673]}, "properties": {"permit_year": 2015, "permit_address": "15 Zandra Pl.", "permit_units": 1, "permit_category": "SF"}}, {"type": "Feature", "geometry": {"type": "Point", "coordinates": [-122.554277014273, 38.1111862842197]}, "properties": {"permit_year": 2015, "permit_address": "16 Zandra Pl.", "permit_units": 1, "permit_category": "SF"}}, {"type": "Feature", "geometry": {"type": "Point", "coordinates": [-122.584771113796, 38.0951519827779]}, "properties": {"permit_year": 2015, "permit_address": "610 Canyon Rd.", "permit_units": 1, "permit_category": "SF"}}, {"type": "Feature", "geometry": {"type": "Point", "coordinates": [-122.544173361312, 38.1052464959291]}, "properties": {"permit_year": 2015, "permit_address": "55 Wendy Ct.", "permit_units": 1, "permit_category": "SF"}}, {"type": "Feature", "geometry": {"type": "Point", "coordinates": [-122.5881059897, 38.1079073236641]}, "properties": {"permit_year": 2015, "permit_address": "1 Rose Stone Way", "permit_units": 1, "permit_category": "SF"}}, {"type": "Feature", "geometry": {"type": "Point", "coordinates": [-122.587898275985, 38.1078135954211]}, "properties": {"permit_year": 2015, "permit_address": "5 Rose Stone Way", "permit_units": 1, "permit_category": "SF"}}, {"type": "Feature", "geometry": {"type": "Point", "coordinates": [-122.588033541215, 38.1073729168267]}, "properties": {"permit_year": 2015, "permit_address": "6 Rose Stone Way", "permit_units": 1, "permit_category": "SF"}}, {"type": "Feature", "geometry": {"type": "Point", "coordinates": [-122.587687557635, 38.1077174713843]}, "properties": {"permit_year": 2015, "permit_address": "9 Rose Stone Way", "permit_units": 1, "permit_category": "SF"}}, {"type": "Feature", "geometry": {"type": "Point", "coordinates": [-122.587840878554, 38.1072863948513]}, "properties": {"permit_year": 2015, "permit_address": "10 Rose Stone Way", "permit_units": 1, "permit_category": "SF"}}, {"type": "Feature", "geometry": {"type": "Point", "coordinates": [-122.587476745755, 38.1076380396639]}, "properties": {"permit_year": 2015, "permit_address": "13 Rose Stone Way", "permit_units": 1, "permit_category": "SF"}}, {"type": "Feature", "geometry": {"type": "Point", "coordinates": [-122.587663506166, 38.1071641580995]}, "properties": {"permit_year": 2015, "permit_address": "14 Rose Stone Way", "permit_units": 1, "permit_category": "SF"}}, {"type": "Feature", "geometry": {"type": "Point", "coordinates": [-122.587178401962, 38.1075606835788]}, "properties": {"permit_year": 2015, "permit_address": "17 Rose Stone Way", "permit_units": 1, "permit_category": "SF"}}, {"type": "Feature", "geometry": {"type": "Point", "coordinates": [-122.587419753918, 38.1070393016225]}, "properties": {"permit_year": 2015, "permit_address": "18 Rose Stone Way", "permit_units": 1, "permit_category": "SF"}}, {"type": "Feature", "geometry": {"type": "Point", "coordinates": [-122.587288522148, 38.1072987641267]}, "properties": {"permit_year": 2015, "permit_address": "22 Rose Stone Way", "permit_units": 1, "permit_category": "SF"}}, {"type": "Feature", "geometry": {"type": "Point", "coordinates": [-122.562308, 38.085196]}, "properties": {"permit_year": 2018, "permit_address": "1300 Monte Maria", "permit_units": 1, "permit_category": "ADU"}}, {"type": "Feature", "geometry": {"type": "Point", "coordinates": [-122.544116, 38.105228]}, "properties": {"permit_year": 2018, "permit_address": "55 Wendy Ct.", "permit_units": 1, "permit_category": "ADU"}}, {"type": "Feature", "geometry": {"type": "Point", "coordinates": [-122.527747, 38.059496]}, "properties": {"permit_year": 2018, "permit_address": "801 State Access Rd.", "permit_units": 48, "permit_category": "5+"}}, {"type": "Feature", "geometry": {"type": "Point", "coordinates": [-122.567044, 38.097751]}, "properties": {"permit_year": 2018, "permit_address": "36 Lauren Ave.", "permit_units": 1, "permit_category": "ADU"}}, {"type": "Feature", "geometry": {"type": "Point", "coordinates": [-122.571358, 38.110389]}, "properties": {"permit_year": 2018, "permit_address": "1108 Second St.", "permit_units": 1, "permit_category": "SFD"}}, {"type": "Feature", "geometry": {"type": "Point", "coordinates": [-122.571358, 38.110389]}, "properties": {"permit_year": 2018, "permit_address": "1108 Second St.", "permit_units": 1, "permit_category": "ADU"}}, {"type": "Feature", "geometry": {"type": "Point", "coordinates": [-122.604223, 38.109465]}, "properties": {"permit_year": 2018, "permit_address": "2 Thomas Ct.", "permit_units": 1, "permit_category": "SFD"}}, {"type": "Feature", "geometry": {"type": "Point", "coordinates": [-122.523979, 38.058639]}, "properties": {"permit_year": 2018, "permit_address": "19 Cottage Ln.", "permit_units": 1, "permit_category": "SFD"}}, {"type": "Feature", "geometry": {"type": "Point", "coordinates": [-122.523952, 38.058543]}, "properties": {"permit_year": 2018, "permit_address": "18 Cottage Ln.", "permit_units": 1, "permit_category": "SFD"}}, {"type": "Feature", "geometry": {"type": "Point", "coordinates": [-122.523959, 38.058434]}, "properties": {"permit_year": 2018, "permit_address": "17 Cottage Ln.", "permit_units": 1, "permit_category": "SFD"}}, {"type": "Feature", "geometry": {"type": "Point", "coordinates": [-122.523974, 38.058332]}, "properties": {"permit_year": 2018, "permit_address": "16 Cottage Ln.", "permit_units": 1, "permit_category": "SFD"}}, {"type": "Feature", "geometry": {"type": "Point", "coordinates": [-122.523987, 38.058226]}, "properties": {"permit_year": 2018, "permit_address": "15 Cottage Ln.", "permit_units": 1, "permit_category": "SFD"}}, {"type": "Feature", "geometry": {"type": "Point", "coordinates": [-122.524176, 38.058316]}, "properties": {"permit_year": 2018, "permit_address": "14 Cottage Ln.", "permit_units": 1, "permit_category": "SFD"}}, {"type": "Feature", "geometry": {"type": "Point", "coordinates": [-122.562352, 38.10904]}, "properties": {"permit_year": 2018, "permit_address": "684 Orange Ave.", "permit_units": 1, "permit_category": "ADU"}}, {"type": "Feature", "geometry": {"type": "Point", "coordinates": [-122.524347, 38.119486]}, "properties": {"permit_year": 2018, "permit_address": "2020 Laguna Vista Dr.", "permit_units": 1, "permit_category": "ADU"}}, {"type": "Feature", "geometry": {"type": "Point", "coordinates": [-122.52428, 38.058443]}, "properties": {"permit_year": 2019, "permit_address": "13 Cottage Ln", "permit_units": 1, "permit_category": "SFD"}}, {"type": "Feature", "geometry": {"type": "Point", "coordinates": [-122.524402, 38.058555]}, "properties": {"permit_year": 2019, "permit_address": "12 Cottage Ln", "permit_units": 1, "permit_category": "SFD"}}, {"type": "Feature", "geometry": {"type": "Point", "coordinates": [-122.524491, 38.058662]}, "properties": {"permit_year": 2019, "permit_address": "11 Cottage Ln", "permit_units": 1, "permit_category": "SFD"}}, {"type": "Feature", "geometry": {"type": "Point", "coordinates": [-122.523974, 38.058752]}, "properties": {"permit_year": 2019, "permit_address": "20 Cottage Ln", "permit_units": 1, "permit_category": "SFD"}}, {"type": "Feature", "geometry": {"type": "Point", "coordinates": [-122.523965, 38.058852]}, "properties": {"permit_year": 2019, "permit_address": "21 Cottage Ln", "permit_units": 1, "permit_category": "SFD"}}, {"type": "Feature", "geometry": {"type": "Point", "coordinates": [-122.524164, 38.058817]}, "properties": {"permit_year": 2019, "permit_address": "22 Cottage Ln", "permit_units": 1, "permit_category": "SFD"}}, {"type": "Feature", "geometry": {"type": "Point", "coordinates": [-122.5243, 38.058826]}, "properties": {"permit_year": 2019, "permit_address": "23 Cottage Ln", "permit_units": 1, "permit_category": "SFD"}}, {"type": "Feature", "geometry": {"type": "Point", "coordinates": [-122.524397, 38.058836]}, "properties": {"permit_year": 2019, "permit_address": "24 Cottage Ln", "permit_units": 1, "permit_category": "SFD"}}, {"type": "Feature", "geometry": {"type": "Point", "coordinates": [-122.524547, 38.058842]}, "properties": {"permit_year": 2019, "permit_address": "25 Cottage Ln", "permit_units": 1, "permit_category": "SFD"}}, {"type": "Feature", "geometry": {"type": "Point", "coordinates": [-122.52464, 38.058763]}, "properties": {"permit_year": 2019, "permit_address": "10 Cottage Ln", "permit_units": 1, "permit_category": "SFD"}}, {"type": "Feature", "geometry": {"type": "Point", "coordinates": [-122.59173, 38.116669]}, "properties": {"permit_year": 2019, "permit_address": "2061 Feliz Rd", "permit_units": 1, "permit_category": "SFD"}}, {"type": "Feature", "geometry": {"type": "Point", "coordinates": [-122.524347, 38.119486]}, "properties": {"permit_year": 2019, "permit_address": "2020 Laguna Vista Dr", "permit_units": 1, "permit_category": "ADU"}}, {"type": "Feature", "geometry": {"type": "Point", "coordinates": [-122.593792, 38.114472]}, "properties": {"permit_year": 2019, "permit_address": "18 Queva Vista #A", "permit_units": 1, "permit_category": "ADU"}}, {"type": "Feature", "geometry": {"type": "Point", "coordinates": [-122.559946, 38.061039]}, "properties": {"permit_year": 2019, "permit_address": "23 Carnoustie Dr #A", "permit_units": 1, "permit_category": "ADU"}}, {"type": "Feature", "geometry": {"type": "Point", "coordinates": [-122.591906, 38.114696]}, "properties": {"permit_year": 2019, "permit_address": "98 Pico Vista #A", "permit_units": 1, "permit_category": "ADU"}}, {"type": "Feature", "geometry": {"type": "Point", "coordinates": [-122.544294, 38.10482]}, "properties": {"permit_year": 2019, "permit_address": "2 Galloway Ln #A", "permit_units": 1, "permit_category": "ADU"}}, {"type": "Feature", "geometry": {"type": "Point", "coordinates": [-122.565772, 38.101741]}, "properties": {"permit_year": 2019, "permit_address": "806 Lamont Ave #A", "permit_units": 1, "permit_category": "ADU"}}, {"type": "Feature", "geometry": {"type": "Point", "coordinates": [-122.582701, 38.103884]}, "properties": {"permit_year": 2019, "permit_address": "1718 Center Rd", "permit_units": 1, "permit_category": "ADU"}}, {"type": "Feature", "geometry": {"type": "Point", "coordinates": [-122.591044, 38.120355]}, "properties": {"permit_year": 2019, "permit_address": "275 San Carlos Wy", "permit_units": 1, "permit_category": "ADU"}}, {"type": "Feature", "geometry": {"type": "Point", "coordinates": [-122.593792, 38.114472]}, "properties": {"permit_year": 2019, "permit_address": "18 Queva Vista #A", "permit_units": 1, "permit_category": "ADU"}}, {"type": "Feature", "geometry": {"type": "Point", "coordinates": [-122.529856, 38.050488]}, "properties": {"permit_year": 2019, "permit_address": "299 Marin Valley Dr", "permit_units": 1, "permit_category": "SFA"}}, {"type": "Feature", "geometry": {"type": "Point", "coordinates": [-122.574101, 38.102586]}, "properties": {"permit_year": 2019, "permit_address": "859 Diablo Ave A,B,C,D", "permit_units": 4, "permit_category": "2 to 4"}}, {"type": "Feature", "geometry": {"type": "Point", "coordinates": [-122.588366, 38.111729]}, "properties": {"permit_year": 2019, "permit_address": "1875 Virginia Ave", "permit_units": 1, "permit_category": "ADU"}}, {"type": "Feature", "geometry": {"type": "Point", "coordinates": [-122.518411, 38.055893]}, "properties": {"permit_year": 2019, "permit_address": "516 Hospital Dr", "permit_units": 48, "permit_category": "5+"}}, {"type": "Feature", "geometry": {"type": "Point", "coordinates": [-122.568056, 38.092735]}, "properties": {"permit_year": 2019, "permit_address": "1461 Novato Blvd", "permit_units": 50, "permit_category": "5+"}}]}