{
  "type": "FeatureCollection",
  "features": [
    {
      "type": "Feature",
      "geometry": {
        "type": "Point",
        "coordinates": [
          -122.432010000261,
          37.4580000001
        ]
      },
      "properties": {
        "permit_year": 2017,
        "permit_address": "623 SPRUCE ST",
        "permit_units": 1,
        "permit_category": "SU"
      }
    },
    {
      "type": "Feature",
      "geometry": {
        "type": "Point",
        "coordinates": [
          -122.439520000348,
          37.461920000108
        ]
      },
      "properties": {
        "permit_year": 2017,
        "permit_address": "323 VALDEZ AVE",
        "permit_units": 1,
        "permit_category": "SU"
      }
    },
    {
      "type": "Feature",
      "geometry": {
        "type": "Point",
        "coordinates": [
          -122.433889999724,
          37.4552900001335
        ]
      },
      "properties": {
        "permit_year": 2017,
        "permit_address": "519 GROVE ST",
        "permit_units": 1,
        "permit_category": "SU"
      }
    },
    {
      "type": "Feature",
      "geometry": {
        "type": "Point",
        "coordinates": [
          -122.429559999694,
          37.4494899997637
        ]
      },
      "properties": {
        "permit_year": 2017,
        "permit_address": "1350 CABRILLO HWY #N",
        "permit_units": 1,
        "permit_category": "SU"
      }
    },
    {
      "type": "Feature",
      "geometry": {
        "type": "Point",
        "coordinates": [
          -122.438509999637,
          37.4558899999236
        ]
      },
      "properties": {
        "permit_year": 2017,
        "permit_address": "328 POPLAR ST",
        "permit_units": 1,
        "permit_category": "SU"
      }
    },
    {
      "type": "Feature",
      "geometry": {
        "type": "Point",
        "coordinates": [
          -122.433868299982,
          37.4398050001007
        ]
      },
      "properties": {
        "permit_year": 2016,
        "permit_address": "241 Bayhill Rd",
        "permit_units": 1,
        "permit_category": "SF"
      }
    },
    {
      "type": "Feature",
      "geometry": {
        "type": "Point",
        "coordinates": [
          -122.433278699952,
          37.4726036996011
        ]
      },
      "properties": {
        "permit_year": 2016,
        "permit_address": "527 HIGHLAND AVE",
        "permit_units": 1,
        "permit_category": "SU"
      }
    },
    {
      "type": "Feature",
      "geometry": {
        "type": "Point",
        "coordinates": [
          -122.435289399686,
          37.4397156002948
        ]
      },
      "properties": {
        "permit_year": 2016,
        "permit_address": "116 Carnoustie Dr",
        "permit_units": 1,
        "permit_category": "SF"
      }
    },
    {
      "type": "Feature",
      "geometry": {
        "type": "Point",
        "coordinates": [
          -122.435289399686,
          37.4397156002948
        ]
      },
      "properties": {
        "permit_year": 2016,
        "permit_address": "118 Carnoustie Dr",
        "permit_units": 1,
        "permit_category": "SF"
      }
    },
    {
      "type": "Feature",
      "geometry": {
        "type": "Point",
        "coordinates": [
          -122.436703900165,
          37.4541139000365
        ]
      },
      "properties": {
        "permit_year": 2016,
        "permit_address": "371 MAGNOLIA ST",
        "permit_units": 1,
        "permit_category": "SU"
      }
    },
    {
      "type": "Feature",
      "geometry": {
        "type": "Point",
        "coordinates": [
          -122.435289399686,
          37.4397156002948
        ]
      },
      "properties": {
        "permit_year": 2016,
        "permit_address": "120 Carnoustie Dr",
        "permit_units": 1,
        "permit_category": "SF"
      }
    },
    {
      "type": "Feature",
      "geometry": {
        "type": "Point",
        "coordinates": [
          -122.4372792999,
          37.4666066002145
        ]
      },
      "properties": {
        "permit_year": 2016,
        "permit_address": "20 JENNA LANE",
        "permit_units": 1,
        "permit_category": "SF"
      }
    },
    {
      "type": "Feature",
      "geometry": {
        "type": "Point",
        "coordinates": [
          -122.436688699824,
          37.4661464998611
        ]
      },
      "properties": {
        "permit_year": 2016,
        "permit_address": "447 Laurel Avenue",
        "permit_units": 1,
        "permit_category": "SF"
      }
    },
    {
      "type": "Feature",
      "geometry": {
        "type": "Point",
        "coordinates": [
          -122.436903799671,
          37.4694769996639
        ]
      },
      "properties": {
        "permit_year": 2016,
        "permit_address": "340 BELLEVILLE",
        "permit_units": 1,
        "permit_category": "SF"
      }
    },
    {
      "type": "Feature",
      "geometry": {
        "type": "Point",
        "coordinates": [
          -122.435917300043,
          37.4710614998884
        ]
      },
      "properties": {
        "permit_year": 2016,
        "permit_address": "430 Belleville Blvd",
        "permit_units": 1,
        "permit_category": "SF"
      }
    },
    {
      "type": "Feature",
      "geometry": {
        "type": "Point",
        "coordinates": [
          -122.437313600043,
          37.4696513997923
        ]
      },
      "properties": {
        "permit_year": 2016,
        "permit_address": "344 BELLEVILLE BLVD",
        "permit_units": 1,
        "permit_category": "SF"
      }
    },
    {
      "type": "Feature",
      "geometry": {
        "type": "Point",
        "coordinates": [
          -122.435047599867,
          37.4566874000035
        ]
      },
      "properties": {
        "permit_year": 2016,
        "permit_address": "483 POPLAR STREET",
        "permit_units": 1,
        "permit_category": "SF"
      }
    },
    {
      "type": "Feature",
      "geometry": {
        "type": "Point",
        "coordinates": [
          -122.444655099553,
          37.478566599569
        ]
      },
      "properties": {
        "permit_year": 2016,
        "permit_address": "421 Wave Ave",
        "permit_units": 1,
        "permit_category": "SF"
      }
    },
    {
      "type": "Feature",
      "geometry": {
        "type": "Point",
        "coordinates": [
          -122.441787399869,
          37.4618466999653
        ]
      },
      "properties": {
        "permit_year": 2016,
        "permit_address": "208 valdez street",
        "permit_units": 1,
        "permit_category": "SF"
      }
    },
    {
      "type": "Feature",
      "geometry": {
        "type": "Point",
        "coordinates": [
          -122.451825799821,
          37.4894399004311
        ]
      },
      "properties": {
        "permit_year": 2016,
        "permit_address": "2786 PULLMAN AVE",
        "permit_units": 1,
        "permit_category": "SF"
      }
    },
    {
      "type": "Feature",
      "geometry": {
        "type": "Point",
        "coordinates": [
          -122.436053399844,
          37.4653392000441
        ]
      },
      "properties": {
        "permit_year": 2016,
        "permit_address": "481 Pine Ave",
        "permit_units": 3,
        "permit_category": "2 to 4"
      }
    },
    {
      "type": "Feature",
      "geometry": {
        "type": "Point",
        "coordinates": [
          -122.433868299982,
          37.4398050001007
        ]
      },
      "properties": {
        "permit_year": 2016,
        "permit_address": "231 Bayhill Rd",
        "permit_units": 1,
        "permit_category": "SF"
      }
    },
    {
      "type": "Feature",
      "geometry": {
        "type": "Point",
        "coordinates": [
          -122.439455000048,
          37.4816213996079
        ]
      },
      "properties": {
        "permit_year": 2016,
        "permit_address": "1515 Hawser Lane",
        "permit_units": 1,
        "permit_category": "SU"
      }
    },
    {
      "type": "Feature",
      "geometry": {
        "type": "Point",
        "coordinates": [
          -122.415566,
          37.389057
        ]
      },
      "properties": {
        "permit_year": 2015,
        "permit_address": "Unidentified",
        "permit_units": 0,
        "permit_category": "Unidentified"
      }
    },
    {
      "type": "Feature",
      "geometry": {
        "type": "Point",
        "coordinates": [
          -122.436958712275,
          37.4616727485985
        ]
      },
      "properties": {
        "permit_year": 2014,
        "permit_address": "439 Valdez Ave",
        "permit_units": 1,
        "permit_category": "SF"
      }
    },
    {
      "type": "Feature",
      "geometry": {
        "type": "Point",
        "coordinates": [
          -122.437035610605,
          37.4611430074439
        ]
      },
      "properties": {
        "permit_year": 2014,
        "permit_address": "440 Valdez Ave",
        "permit_units": 1,
        "permit_category": "SF"
      }
    },
    {
      "type": "Feature",
      "geometry": {
        "type": "Point",
        "coordinates": [
          -122.436886269186,
          37.4611242233043
        ]
      },
      "properties": {
        "permit_year": 2014,
        "permit_address": "444 Valdez Ave",
        "permit_units": 1,
        "permit_category": "SF"
      }
    },
    {
      "type": "Feature",
      "geometry": {
        "type": "Point",
        "coordinates": [
          -122.433849899853,
          37.4398076000408
        ]
      },
      "properties": {
        "permit_year": 2014,
        "permit_address": "281 Bayhill Rd",
        "permit_units": 1,
        "permit_category": "SF"
      }
    },
    {
      "type": "Feature",
      "geometry": {
        "type": "Point",
        "coordinates": [
          -122.430881447321,
          37.4633575124393
        ]
      },
      "properties": {
        "permit_year": 2014,
        "permit_address": "511 CHURCH ST",
        "permit_units": 1,
        "permit_category": "SF"
      }
    },
    {
      "type": "Feature",
      "geometry": {
        "type": "Point",
        "coordinates": [
          -122.435289399686,
          37.4397156002948
        ]
      },
      "properties": {
        "permit_year": 2014,
        "permit_address": "114 Carnoustie Dr",
        "permit_units": 1,
        "permit_category": "SF"
      }
    },
    {
      "type": "Feature",
      "geometry": {
        "type": "Point",
        "coordinates": [
          -122.433849899853,
          37.4398076000408
        ]
      },
      "properties": {
        "permit_year": 2014,
        "permit_address": "251 Bayhill Rd",
        "permit_units": 1,
        "permit_category": "SF"
      }
    },
    {
      "type": "Feature",
      "geometry": {
        "type": "Point",
        "coordinates": [
          -122.435289399686,
          37.4397156002948
        ]
      },
      "properties": {
        "permit_year": 2014,
        "permit_address": "110 Carnoustie Dr",
        "permit_units": 1,
        "permit_category": "SF"
      }
    },
    {
      "type": "Feature",
      "geometry": {
        "type": "Point",
        "coordinates": [
          -122.429822699758,
          37.4610728998945
        ]
      },
      "properties": {
        "permit_year": 2014,
        "permit_address": "724 MAIN ST",
        "permit_units": 1,
        "permit_category": "SF"
      }
    },
    {
      "type": "Feature",
      "geometry": {
        "type": "Point",
        "coordinates": [
          -122.435289399686,
          37.4397156002948
        ]
      },
      "properties": {
        "permit_year": 2014,
        "permit_address": "111 Carnoustie Dr",
        "permit_units": 1,
        "permit_category": "SF"
      }
    },
    {
      "type": "Feature",
      "geometry": {
        "type": "Point",
        "coordinates": [
          -122.452449906838,
          37.4895067902062
        ]
      },
      "properties": {
        "permit_year": 2014,
        "permit_address": "400 Washington",
        "permit_units": 1,
        "permit_category": "SF"
      }
    },
    {
      "type": "Feature",
      "geometry": {
        "type": "Point",
        "coordinates": [
          -122.435289399686,
          37.4397156002948
        ]
      },
      "properties": {
        "permit_year": 2014,
        "permit_address": "117 Carnoustie Dr",
        "permit_units": 1,
        "permit_category": "SF"
      }
    },
    {
      "type": "Feature",
      "geometry": {
        "type": "Point",
        "coordinates": [
          -122.436724250024,
          37.4574131448009
        ]
      },
      "properties": {
        "permit_year": 2014,
        "permit_address": "415 SPRUCE ST",
        "permit_units": 1,
        "permit_category": "SF"
      }
    },
    {
      "type": "Feature",
      "geometry": {
        "type": "Point",
        "coordinates": [
          -122.436466,
          37.463638
        ]
      },
      "properties": {
        "permit_year": 2018,
        "permit_address": "447 Miramontes Street",
        "permit_units": 1,
        "permit_category": "SFD"
      }
    },
    {
      "type": "Feature",
      "geometry": {
        "type": "Point",
        "coordinates": [
          -122.436466,
          37.463638
        ]
      },
      "properties": {
        "permit_year": 2018,
        "permit_address": "447 Miramontes Street",
        "permit_units": 1,
        "permit_category": "ADU"
      }
    },
    {
      "type": "Feature",
      "geometry": {
        "type": "Point",
        "coordinates": [
          -122.44026,
          37.461508
        ]
      },
      "properties": {
        "permit_year": 2018,
        "permit_address": "312 Valdez Avenue",
        "permit_units": 1,
        "permit_category": "SFD"
      }
    },
    {
      "type": "Feature",
      "geometry": {
        "type": "Point",
        "coordinates": [
          -122.439741,
          37.46449
        ]
      },
      "properties": {
        "permit_year": 2018,
        "permit_address": "312 Kelly Avenue",
        "permit_units": 1,
        "permit_category": "SFD"
      }
    },
    {
      "type": "Feature",
      "geometry": {
        "type": "Point",
        "coordinates": [
          -122.418387,
          37.653332
        ]
      },
      "properties": {
        "permit_year": 2018,
        "permit_address": "525 Railroad Avenue",
        "permit_units": 1,
        "permit_category": "SFD"
      }
    },
    {
      "type": "Feature",
      "geometry": {
        "type": "Point",
        "coordinates": [
          -122.441264,
          37.459057
        ]
      },
      "properties": {
        "permit_year": 2018,
        "permit_address": "565 Railroad Avenue",
        "permit_units": 1,
        "permit_category": "SFD"
      }
    },
    {
      "type": "Feature",
      "geometry": {
        "type": "Point",
        "coordinates": [
          -122.43349,
          37.454183
        ]
      },
      "properties": {
        "permit_year": 2018,
        "permit_address": "544 Magnolia Blvd",
        "permit_units": 1,
        "permit_category": "SFD"
      }
    },
    {
      "type": "Feature",
      "geometry": {
        "type": "Point",
        "coordinates": [
          -122.435096,
          37.466087
        ]
      },
      "properties": {
        "permit_year": 2018,
        "permit_address": "225 Pilarcitos Avenue",
        "permit_units": 1,
        "permit_category": "SFD"
      }
    },
    {
      "type": "Feature",
      "geometry": {
        "type": "Point",
        "coordinates": [
          -122.439613,
          37.464475
        ]
      },
      "properties": {
        "permit_year": 2018,
        "permit_address": "316 Kelly Avenue",
        "permit_units": 1,
        "permit_category": "SFD"
      }
    },
    {
      "type": "Feature",
      "geometry": {
        "type": "Point",
        "coordinates": [
          -122.426874,
          37.462185
        ]
      },
      "properties": {
        "permit_year": 2018,
        "permit_address": "814 Miramontes Street",
        "permit_units": 1,
        "permit_category": "ADU"
      }
    },
    {
      "type": "Feature",
      "geometry": {
        "type": "Point",
        "coordinates": [
          -122.456098,
          37.492886
        ]
      },
      "properties": {
        "permit_year": 2018,
        "permit_address": "30 Ventura Street",
        "permit_units": 1,
        "permit_category": "ADU"
      }
    },
    {
      "type": "Feature",
      "geometry": {
        "type": "Point",
        "coordinates": [
          -122.43767,
          37.458651
        ]
      },
      "properties": {
        "permit_year": 2018,
        "permit_address": "390 Myrtle Street",
        "permit_units": 1,
        "permit_category": "SFD"
      }
    },
    {
      "type": "Feature",
      "geometry": {
        "type": "Point",
        "coordinates": [
          -122.435552,
          37.457036
        ]
      },
      "properties": {
        "permit_year": 2018,
        "permit_address": "456 Spruce Street",
        "permit_units": 1,
        "permit_category": "ADU"
      }
    },
    {
      "type": "Feature",
      "geometry": {
        "type": "Point",
        "coordinates": [
          -122.429792,
          37.461491
        ]
      },
      "properties": {
        "permit_year": 2019,
        "permit_address": "700 Main Street",
        "permit_units": 1,
        "permit_category": "SFD"
      }
    },
    {
      "type": "Feature",
      "geometry": {
        "type": "Point",
        "coordinates": [
          -122.439257,
          37.461322
        ]
      },
      "properties": {
        "permit_year": 2019,
        "permit_address": "332 Valdez Avenue",
        "permit_units": 1,
        "permit_category": "ADU"
      }
    },
    {
      "type": "Feature",
      "geometry": {
        "type": "Point",
        "coordinates": [
          -122.426874,
          37.462185
        ]
      },
      "properties": {
        "permit_year": 2018,
        "permit_address": "814 Miramontes Street",
        "permit_units": 0,
        "permit_category": "ADU"
      }
    },
    {
      "type": "Feature",
      "geometry": {
        "type": "Point",
        "coordinates": [
          -122.453197,
          37.489748
        ]
      },
      "properties": {
        "permit_year": 2019,
        "permit_address": "2801 Champs Elysee Blvd.",
        "permit_units": 1,
        "permit_category": "SFD"
      }
    },
    {
      "type": "Feature",
      "geometry": {
        "type": "Point",
        "coordinates": [
          -122.432316,
          37.474086
        ]
      },
      "properties": {
        "permit_year": 2019,
        "permit_address": "600 Highland Ave",
        "permit_units": 1,
        "permit_category": "ADU"
      }
    },
    {
      "type": "Feature",
      "geometry": {
        "type": "Point",
        "coordinates": [
          -122.438172,
          37.470557
        ]
      },
      "properties": {
        "permit_year": 2019,
        "permit_address": "417 Chesterfield Avenue",
        "permit_units": 1,
        "permit_category": "SFD"
      }
    },
    {
      "type": "Feature",
      "geometry": {
        "type": "Point",
        "coordinates": [
          -122.438779,
          37.482082
        ]
      },
      "properties": {
        "permit_year": 2019,
        "permit_address": "1575 Mizzen Lane",
        "permit_units": 1,
        "permit_category": "ADU"
      }
    },
    {
      "type": "Feature",
      "geometry": {
        "type": "Point",
        "coordinates": [
          -122.452209,
          37.489898
        ]
      },
      "properties": {
        "permit_year": 2019,
        "permit_address": "2782 Pullman Avenue",
        "permit_units": 1,
        "permit_category": "SFD"
      }
    },
    {
      "type": "Feature",
      "geometry": {
        "type": "Point",
        "coordinates": [
          -122.433542,
          37.459597
        ]
      },
      "properties": {
        "permit_year": 2019,
        "permit_address": "567 Myrtle Street",
        "permit_units": 1,
        "permit_category": "ADU"
      }
    },
    {
      "type": "Feature",
      "geometry": {
        "type": "Point",
        "coordinates": [
          -122.438506,
          37.456672
        ]
      },
      "properties": {
        "permit_year": 2019,
        "permit_address": "332 Spruce Street",
        "permit_units": 1,
        "permit_category": "ADU"
      }
    },
    {
      "type": "Feature",
      "geometry": {
        "type": "Point",
        "coordinates": [
          -122.432516,
          37.458301
        ]
      },
      "properties": {
        "permit_year": 2019,
        "permit_address": "604 Filbert Street",
        "permit_units": 1,
        "permit_category": "ADU"
      }
    },
    {
      "type": "Feature",
      "geometry": {
        "type": "Point",
        "coordinates": [
          -122.433215,
          37.456855
        ]
      },
      "properties": {
        "permit_year": 2019,
        "permit_address": "555 Poplar Street",
        "permit_units": 2,
        "permit_category": "2 to 4"
      }
    },
    {
      "type": "Feature",
      "geometry": {
        "type": "Point",
        "coordinates": [
          -122.456482,
          37.492686
        ]
      },
      "properties": {
        "permit_year": 2019,
        "permit_address": "41 Alameda Avenue",
        "permit_units": 1,
        "permit_category": "ADU"
      }
    },
    {
      "type": "Feature",
      "geometry": {
        "type": "Point",
        "coordinates": [
          -122.452189,
          37.491012
        ]
      },
      "properties": {
        "permit_year": 2019,
        "permit_address": "537 Roosevelt Blvd",
        "permit_units": 1,
        "permit_category": "SFD"
      }
    },
    {
      "type": "Feature",
      "geometry": {
        "type": "Point",
        "coordinates": [
          -122.438827,
          37.458397
        ]
      },
      "properties": {
        "permit_year": 2019,
        "permit_address": "328 Myrtle Street",
        "permit_units": 1,
        "permit_category": "ADU"
      }
    },
    {
      "type": "Feature",
      "geometry": {
        "type": "Point",
        "coordinates": [
          -122.418387,
          37.653332
        ]
      },
      "properties": {
        "permit_year": 2018,
        "permit_address": "525 Railroad Avenue",
        "permit_units": 0,
        "permit_category": "SFD"
      }
    },
    {
      "type": "Feature",
      "geometry": {
        "type": "Point",
        "coordinates": [
          -122.441264,
          37.459057
        ]
      },
      "properties": {
        "permit_year": 2018,
        "permit_address": "565 Railroad Avenue",
        "permit_units": 0,
        "permit_category": "SFD"
      }
    },
    {
      "type": "Feature",
      "geometry": {
        "type": "Point",
        "coordinates": [
          -122.43767,
          37.458651
        ]
      },
      "properties": {
        "permit_year": 2018,
        "permit_address": "390 Myrtle Street",
        "permit_units": 0,
        "permit_category": "SFD"
      }
    },
    {
      "type": "Feature",
      "geometry": {
        "type": "Point",
        "coordinates": [
          -122.435552,
          37.457036
        ]
      },
      "properties": {
        "permit_year": 2018,
        "permit_address": "456 Spruce Street",
        "permit_units": 0,
        "permit_category": "ADU"
      }
    },
    {
      "type": "Feature",
      "geometry": {
        "type": "Point",
        "coordinates": [
          -122.369035,
          37.556596
        ]
      },
      "properties": {
        "permit_year": 2019,
        "permit_address": "306 Ralston Street",
        "permit_units": 1,
        "permit_category": "ADU"
      }
    },
    {
      "type": "Feature",
      "geometry": {
        "type": "Point",
        "coordinates": [
          -122.429309,
          37.460952
        ]
      },
      "properties": {
        "permit_year": 2017,
        "permit_address": "719 Main Street ",
        "permit_units": 0,
        "permit_category": "2 to 4"
      }
    },
    {
      "type": "Feature",
      "geometry": {
        "type": "Point",
        "coordinates": [
          -122.44026,
          37.461508
        ]
      },
      "properties": {
        "permit_year": 2018,
        "permit_address": "312 Valdez Avenue",
        "permit_units": 0,
        "permit_category": "SFD"
      }
    },
    {
      "type": "Feature",
      "geometry": {
        "type": "Point",
        "coordinates": [
          -122.439741,
          37.46449
        ]
      },
      "properties": {
        "permit_year": 2018,
        "permit_address": "312 Kelly Avenue",
        "permit_units": 0,
        "permit_category": "SFD"
      }
    },
    {
      "type": "Feature",
      "geometry": {
        "type": "Point",
        "coordinates": [
          -122.433321,
          37.458604
        ]
      },
      "properties": {
        "permit_year": 2019,
        "permit_address": "575 Filbert Street",
        "permit_units": 1,
        "permit_category": "SFD"
      }
    },
    {
      "type": "Feature",
      "geometry": {
        "type": "Point",
        "coordinates": [
          -122.435096,
          37.466087
        ]
      },
      "properties": {
        "permit_year": 2018,
        "permit_address": "225 Pilarcitos Avenue",
        "permit_units": 0,
        "permit_category": "SFD"
      }
    },
    {
      "type": "Feature",
      "geometry": {
        "type": "Point",
        "coordinates": [
          -122.437549,
          37.464153
        ]
      },
      "properties": {
        "permit_year": 2019,
        "permit_address": "412 Kelly Avenue",
        "permit_units": 1,
        "permit_category": "ADU"
      }
    },
    {
      "type": "Feature",
      "geometry": {
        "type": "Point",
        "coordinates": [
          -122.431036,
          37.461586
        ]
      },
      "properties": {
        "permit_year": 2019,
        "permit_address": "439 Correas Street",
        "permit_units": 1,
        "permit_category": "SFD"
      }
    }
  ]
}