{
  "type": "FeatureCollection",
  "features": [
    {
      "type": "Feature",
      "geometry": {
        "type": "Point",
        "coordinates": [
          -122.295750000162,
          38.2822499998377
        ]
      },
      "properties": {
        "permit_year": 2017,
        "permit_address": "2122 W Park",
        "permit_units": 1,
        "permit_category": "SF"
      }
    },
    {
      "type": "Feature",
      "geometry": {
        "type": "Point",
        "coordinates": [
          -122.317045518136,
          38.3121147537929
        ]
      },
      "properties": {
        "permit_year": 2017,
        "permit_address": "2415 W Pueblo",
        "permit_units": 1,
        "permit_category": "SU"
      }
    },
    {
      "type": "Feature",
      "geometry": {
        "type": "Point",
        "coordinates": [
          -122.262436105142,
          38.2816261563221
        ]
      },
      "properties": {
        "permit_year": 2017,
        "permit_address": "56 Black Walnut",
        "permit_units": 1,
        "permit_category": "SF"
      }
    },
    {
      "type": "Feature",
      "geometry": {
        "type": "Point",
        "coordinates": [
          -122.262436105142,
          38.2816889667724
        ]
      },
      "properties": {
        "permit_year": 2017,
        "permit_address": "48 Black Walnut",
        "permit_units": 1,
        "permit_category": "SF"
      }
    },
    {
      "type": "Feature",
      "geometry": {
        "type": "Point",
        "coordinates": [
          -122.262436105142,
          38.2813906130864
        ]
      },
      "properties": {
        "permit_year": 2017,
        "permit_address": "86 Black Walnut",
        "permit_units": 1,
        "permit_category": "SF"
      }
    },
    {
      "type": "Feature",
      "geometry": {
        "type": "Point",
        "coordinates": [
          -122.33804083072,
          38.3125305139721
        ]
      },
      "properties": {
        "permit_year": 2017,
        "permit_address": "31 Camilla Dr",
        "permit_units": 1,
        "permit_category": "SU"
      }
    },
    {
      "type": "Feature",
      "geometry": {
        "type": "Point",
        "coordinates": [
          -122.322675669846,
          38.3396176029701
        ]
      },
      "properties": {
        "permit_year": 2017,
        "permit_address": "4336 Byway East",
        "permit_units": 1,
        "permit_category": "SF"
      }
    },
    {
      "type": "Feature",
      "geometry": {
        "type": "Point",
        "coordinates": [
          -122.262436105142,
          38.2814377213738
        ]
      },
      "properties": {
        "permit_year": 2017,
        "permit_address": "80 Black Walnut",
        "permit_units": 1,
        "permit_category": "SF"
      }
    },
    {
      "type": "Feature",
      "geometry": {
        "type": "Point",
        "coordinates": [
          -122.262436105142,
          38.2815319379486
        ]
      },
      "properties": {
        "permit_year": 2017,
        "permit_address": "68 Black Walnut",
        "permit_units": 1,
        "permit_category": "SF"
      }
    },
    {
      "type": "Feature",
      "geometry": {
        "type": "Point",
        "coordinates": [
          -122.262436105142,
          38.2815790471354
        ]
      },
      "properties": {
        "permit_year": 2017,
        "permit_address": "62 Black Walnut",
        "permit_units": 1,
        "permit_category": "SF"
      }
    },
    {
      "type": "Feature",
      "geometry": {
        "type": "Point",
        "coordinates": [
          -122.277615111748,
          38.3075407299208
        ]
      },
      "properties": {
        "permit_year": 2017,
        "permit_address": "1571 Silverado Trail",
        "permit_units": 1,
        "permit_category": "SU"
      }
    },
    {
      "type": "Feature",
      "geometry": {
        "type": "Point",
        "coordinates": [
          -122.348421825607,
          38.3025838475666
        ]
      },
      "properties": {
        "permit_year": 2017,
        "permit_address": "1147 Stonybrook",
        "permit_units": 1,
        "permit_category": "SF"
      }
    },
    {
      "type": "Feature",
      "geometry": {
        "type": "Point",
        "coordinates": [
          -122.289549544276,
          38.3029784862682
        ]
      },
      "properties": {
        "permit_year": 2017,
        "permit_address": "1043 Vallejo",
        "permit_units": 1,
        "permit_category": "SU"
      }
    },
    {
      "type": "Feature",
      "geometry": {
        "type": "Point",
        "coordinates": [
          -122.334090000153,
          38.3134899997637
        ]
      },
      "properties": {
        "permit_year": 2017,
        "permit_address": "35 Forest",
        "permit_units": 1,
        "permit_category": "SU"
      }
    },
    {
      "type": "Feature",
      "geometry": {
        "type": "Point",
        "coordinates": [
          -122.296396008369,
          38.3160184535888
        ]
      },
      "properties": {
        "permit_year": 2017,
        "permit_address": "1032 Pueblo",
        "permit_units": 1,
        "permit_category": "SU"
      }
    },
    {
      "type": "Feature",
      "geometry": {
        "type": "Point",
        "coordinates": [
          -122.310710000266,
          38.2910100000116
        ]
      },
      "properties": {
        "permit_year": 2017,
        "permit_address": "2927 Pine",
        "permit_units": 1,
        "permit_category": "SU"
      }
    },
    {
      "type": "Feature",
      "geometry": {
        "type": "Point",
        "coordinates": [
          -122.296607036086,
          38.2960406492566
        ]
      },
      "properties": {
        "permit_year": 2017,
        "permit_address": "2107 Third",
        "permit_units": 1,
        "permit_category": "SU"
      }
    },
    {
      "type": "Feature",
      "geometry": {
        "type": "Point",
        "coordinates": [
          -122.288293593375,
          38.2915960612093
        ]
      },
      "properties": {
        "permit_year": 2017,
        "permit_address": "333 Franklin",
        "permit_units": 1,
        "permit_category": "SU"
      }
    },
    {
      "type": "Feature",
      "geometry": {
        "type": "Point",
        "coordinates": [
          -122.291265288862,
          38.2885334973231
        ]
      },
      "properties": {
        "permit_year": 2017,
        "permit_address": "1490 Sherwood",
        "permit_units": 1,
        "permit_category": "SU"
      }
    },
    {
      "type": "Feature",
      "geometry": {
        "type": "Point",
        "coordinates": [
          -122.295879999862,
          38.2819199999081
        ]
      },
      "properties": {
        "permit_year": 2017,
        "permit_address": "2145 W Park",
        "permit_units": 1,
        "permit_category": "SU"
      }
    },
    {
      "type": "Feature",
      "geometry": {
        "type": "Point",
        "coordinates": [
          -122.340978030012,
          38.3094094186098
        ]
      },
      "properties": {
        "permit_year": 2017,
        "permit_address": "4051 Browns Valley",
        "permit_units": 1,
        "permit_category": "SU"
      }
    },
    {
      "type": "Feature",
      "geometry": {
        "type": "Point",
        "coordinates": [
          -122.262149428253,
          38.2999505417841
        ]
      },
      "properties": {
        "permit_year": 2017,
        "permit_address": "91 El Nido",
        "permit_units": 1,
        "permit_category": "SF"
      }
    },
    {
      "type": "Feature",
      "geometry": {
        "type": "Point",
        "coordinates": [
          -122.289958918369,
          38.2925944606659
        ]
      },
      "properties": {
        "permit_year": 2017,
        "permit_address": "1560 Laurel",
        "permit_units": 1,
        "permit_category": "SF"
      }
    },
    {
      "type": "Feature",
      "geometry": {
        "type": "Point",
        "coordinates": [
          -122.294636409243,
          38.3004107734385
        ]
      },
      "properties": {
        "permit_year": 2017,
        "permit_address": "1405 Cedar",
        "permit_units": 1,
        "permit_category": "SU"
      }
    },
    {
      "type": "Feature",
      "geometry": {
        "type": "Point",
        "coordinates": [
          -122.329625809583,
          38.3450051958332
        ]
      },
      "properties": {
        "permit_year": 2017,
        "permit_address": "27 Haven",
        "permit_units": 1,
        "permit_category": "SU"
      }
    },
    {
      "type": "Feature",
      "geometry": {
        "type": "Point",
        "coordinates": [
          -122.307056011626,
          38.2887184186202
        ]
      },
      "properties": {
        "permit_year": 2017,
        "permit_address": "147 Almond",
        "permit_units": 1,
        "permit_category": "SU"
      }
    },
    {
      "type": "Feature",
      "geometry": {
        "type": "Point",
        "coordinates": [
          -122.348432350373,
          38.3025627998334
        ]
      },
      "properties": {
        "permit_year": 2017,
        "permit_address": "1153 Stonybrook",
        "permit_units": 1,
        "permit_category": "SF"
      }
    },
    {
      "type": "Feature",
      "geometry": {
        "type": "Point",
        "coordinates": [
          -122.294894681045,
          38.2785534489826
        ]
      },
      "properties": {
        "permit_year": 2017,
        "permit_address": "124 Riordan",
        "permit_units": 1,
        "permit_category": "SF"
      }
    },
    {
      "type": "Feature",
      "geometry": {
        "type": "Point",
        "coordinates": [
          -122.294874306904,
          38.2783731493014
        ]
      },
      "properties": {
        "permit_year": 2017,
        "permit_address": "108 Riordan",
        "permit_units": 1,
        "permit_category": "SF"
      }
    },
    {
      "type": "Feature",
      "geometry": {
        "type": "Point",
        "coordinates": [
          -122.294844380164,
          38.2781762607259
        ]
      },
      "properties": {
        "permit_year": 2017,
        "permit_address": "116 Riordan",
        "permit_units": 1,
        "permit_category": "SF"
      }
    },
    {
      "type": "Feature",
      "geometry": {
        "type": "Point",
        "coordinates": [
          -122.312755769963,
          38.3095162445791
        ]
      },
      "properties": {
        "permit_year": 2017,
        "permit_address": "2194 Euclid",
        "permit_units": 1,
        "permit_category": "SF"
      }
    },
    {
      "type": "Feature",
      "geometry": {
        "type": "Point",
        "coordinates": [
          -122.262436105142,
          38.2814848296612
        ]
      },
      "properties": {
        "permit_year": 2017,
        "permit_address": "74 Black Walnut",
        "permit_units": 1,
        "permit_category": "SF"
      }
    },
    {
      "type": "Feature",
      "geometry": {
        "type": "Point",
        "coordinates": [
          -122.290116450814,
          38.3076859974109
        ]
      },
      "properties": {
        "permit_year": 2017,
        "permit_address": "1960 Yajome",
        "permit_units": 1,
        "permit_category": "SU"
      }
    },
    {
      "type": "Feature",
      "geometry": {
        "type": "Point",
        "coordinates": [
          -122.29485284908,
          38.2780446809173
        ]
      },
      "properties": {
        "permit_year": 2017,
        "permit_address": "132 Riordan",
        "permit_units": 1,
        "permit_category": "SF"
      }
    },
    {
      "type": "Feature",
      "geometry": {
        "type": "Point",
        "coordinates": [
          -122.289290653741,
          38.293599351429
        ]
      },
      "properties": {
        "permit_year": 2017,
        "permit_address": "1526 Palmer",
        "permit_units": 1,
        "permit_category": "SU"
      }
    },
    {
      "type": "Feature",
      "geometry": {
        "type": "Point",
        "coordinates": [
          -122.294629999775,
          38.3054599999791
        ]
      },
      "properties": {
        "permit_year": 2017,
        "permit_address": "107 Heun",
        "permit_units": 1,
        "permit_category": "SF"
      }
    },
    {
      "type": "Feature",
      "geometry": {
        "type": "Point",
        "coordinates": [
          -122.272726979866,
          38.2915043339579
        ]
      },
      "properties": {
        "permit_year": 2017,
        "permit_address": "891 Saratoga",
        "permit_units": 1,
        "permit_category": "SF"
      }
    },
    {
      "type": "Feature",
      "geometry": {
        "type": "Point",
        "coordinates": [
          -122.295779999747,
          38.2822499998377
        ]
      },
      "properties": {
        "permit_year": 2017,
        "permit_address": "2128 W Park",
        "permit_units": 1,
        "permit_category": "SF"
      }
    },
    {
      "type": "Feature",
      "geometry": {
        "type": "Point",
        "coordinates": [
          -122.297466000156,
          38.3323421002078
        ]
      },
      "properties": {
        "permit_year": 2016,
        "permit_address": "108 Old Vine",
        "permit_units": 1,
        "permit_category": "SF"
      }
    },
    {
      "type": "Feature",
      "geometry": {
        "type": "Point",
        "coordinates": [
          -122.294834299663,
          38.2788728000397
        ]
      },
      "properties": {
        "permit_year": 2016,
        "permit_address": "2180 Eva",
        "permit_units": 1,
        "permit_category": "2 to 4"
      }
    },
    {
      "type": "Feature",
      "geometry": {
        "type": "Point",
        "coordinates": [
          -122.294645600314,
          38.2788722001919
        ]
      },
      "properties": {
        "permit_year": 2016,
        "permit_address": "2164 Eva",
        "permit_units": 1,
        "permit_category": "2 to 4"
      }
    },
    {
      "type": "Feature",
      "geometry": {
        "type": "Point",
        "coordinates": [
          -122.265723999563,
          38.3001688998749
        ]
      },
      "properties": {
        "permit_year": 2016,
        "permit_address": "33 Pascale Ct",
        "permit_units": 1,
        "permit_category": "SF"
      }
    },
    {
      "type": "Feature",
      "geometry": {
        "type": "Point",
        "coordinates": [
          -122.257624599995,
          38.2863516997712
        ]
      },
      "properties": {
        "permit_year": 2016,
        "permit_address": "1536 Juanita",
        "permit_units": 1,
        "permit_category": "SF"
      }
    },
    {
      "type": "Feature",
      "geometry": {
        "type": "Point",
        "coordinates": [
          -122.294598900319,
          38.2788685003811
        ]
      },
      "properties": {
        "permit_year": 2016,
        "permit_address": "2160 Eva",
        "permit_units": 1,
        "permit_category": "2 to 4"
      }
    },
    {
      "type": "Feature",
      "geometry": {
        "type": "Point",
        "coordinates": [
          -122.331656500347,
          38.3424418995741
        ]
      },
      "properties": {
        "permit_year": 2016,
        "permit_address": "102 Luke",
        "permit_units": 1,
        "permit_category": "SF"
      }
    },
    {
      "type": "Feature",
      "geometry": {
        "type": "Point",
        "coordinates": [
          -122.289641300306,
          38.3081279998074
        ]
      },
      "properties": {
        "permit_year": 2016,
        "permit_address": "1963 Iroquois",
        "permit_units": 1,
        "permit_category": "SF"
      }
    },
    {
      "type": "Feature",
      "geometry": {
        "type": "Point",
        "coordinates": [
          -122.331656500347,
          38.3424418995741
        ]
      },
      "properties": {
        "permit_year": 2016,
        "permit_address": "150 Luke",
        "permit_units": 1,
        "permit_category": "SF"
      }
    },
    {
      "type": "Feature",
      "geometry": {
        "type": "Point",
        "coordinates": [
          -122.336825100198,
          38.3282070003528
        ]
      },
      "properties": {
        "permit_year": 2016,
        "permit_address": "4235 Wine Country",
        "permit_units": 1,
        "permit_category": "SF"
      }
    },
    {
      "type": "Feature",
      "geometry": {
        "type": "Point",
        "coordinates": [
          -122.337484900408,
          38.3288118996495
        ]
      },
      "properties": {
        "permit_year": 2016,
        "permit_address": "4270 Wine Country",
        "permit_units": 1,
        "permit_category": "SF"
      }
    },
    {
      "type": "Feature",
      "geometry": {
        "type": "Point",
        "coordinates": [
          -122.337484900408,
          38.3288118996495
        ]
      },
      "properties": {
        "permit_year": 2016,
        "permit_address": "4260 Wine Country",
        "permit_units": 1,
        "permit_category": "SF"
      }
    },
    {
      "type": "Feature",
      "geometry": {
        "type": "Point",
        "coordinates": [
          -122.323398199567,
          38.3359009999313
        ]
      },
      "properties": {
        "permit_year": 2016,
        "permit_address": "1026 Wine Country",
        "permit_units": 1,
        "permit_category": "SF"
      }
    },
    {
      "type": "Feature",
      "geometry": {
        "type": "Point",
        "coordinates": [
          -122.262768999989,
          38.2870140000961
        ]
      },
      "properties": {
        "permit_year": 2016,
        "permit_address": "219 Cardwell",
        "permit_units": 1,
        "permit_category": "SF"
      }
    },
    {
      "type": "Feature",
      "geometry": {
        "type": "Point",
        "coordinates": [
          -122.331656500347,
          38.3424418995741
        ]
      },
      "properties": {
        "permit_year": 2016,
        "permit_address": "110 Luke",
        "permit_units": 1,
        "permit_category": "SF"
      }
    },
    {
      "type": "Feature",
      "geometry": {
        "type": "Point",
        "coordinates": [
          -122.331656500347,
          38.3424418995741
        ]
      },
      "properties": {
        "permit_year": 2016,
        "permit_address": "142 Luke",
        "permit_units": 1,
        "permit_category": "SF"
      }
    },
    {
      "type": "Feature",
      "geometry": {
        "type": "Point",
        "coordinates": [
          -122.331656500347,
          38.3424418995741
        ]
      },
      "properties": {
        "permit_year": 2016,
        "permit_address": "126 Luke",
        "permit_units": 1,
        "permit_category": "SF"
      }
    },
    {
      "type": "Feature",
      "geometry": {
        "type": "Point",
        "coordinates": [
          -122.331656500347,
          38.3424418995741
        ]
      },
      "properties": {
        "permit_year": 2016,
        "permit_address": "118 Luke",
        "permit_units": 1,
        "permit_category": "SF"
      }
    },
    {
      "type": "Feature",
      "geometry": {
        "type": "Point",
        "coordinates": [
          -122.331659100287,
          38.3424411000768
        ]
      },
      "properties": {
        "permit_year": 2016,
        "permit_address": "169 Luke",
        "permit_units": 1,
        "permit_category": "SF"
      }
    },
    {
      "type": "Feature",
      "geometry": {
        "type": "Point",
        "coordinates": [
          -122.331656500347,
          38.3424418995741
        ]
      },
      "properties": {
        "permit_year": 2016,
        "permit_address": "158 Luke",
        "permit_units": 1,
        "permit_category": "SF"
      }
    },
    {
      "type": "Feature",
      "geometry": {
        "type": "Point",
        "coordinates": [
          -122.266801999812,
          38.2986610003049
        ]
      },
      "properties": {
        "permit_year": 2016,
        "permit_address": "19 Pascale",
        "permit_units": 1,
        "permit_category": "SF"
      }
    },
    {
      "type": "Feature",
      "geometry": {
        "type": "Point",
        "coordinates": [
          -122.310694999575,
          38.3068500002274
        ]
      },
      "properties": {
        "permit_year": 2016,
        "permit_address": "9 Lone Wood",
        "permit_units": 1,
        "permit_category": "SF"
      }
    },
    {
      "type": "Feature",
      "geometry": {
        "type": "Point",
        "coordinates": [
          -122.331659100287,
          38.3424411000768
        ]
      },
      "properties": {
        "permit_year": 2016,
        "permit_address": "141 Luke",
        "permit_units": 1,
        "permit_category": "SF"
      }
    },
    {
      "type": "Feature",
      "geometry": {
        "type": "Point",
        "coordinates": [
          -122.331659100287,
          38.3424411000768
        ]
      },
      "properties": {
        "permit_year": 2016,
        "permit_address": "117 Luke",
        "permit_units": 1,
        "permit_category": "SF"
      }
    },
    {
      "type": "Feature",
      "geometry": {
        "type": "Point",
        "coordinates": [
          -122.331659100287,
          38.3424411000768
        ]
      },
      "properties": {
        "permit_year": 2016,
        "permit_address": "133 Luke",
        "permit_units": 1,
        "permit_category": "SF"
      }
    },
    {
      "type": "Feature",
      "geometry": {
        "type": "Point",
        "coordinates": [
          -122.331659100287,
          38.3424411000768
        ]
      },
      "properties": {
        "permit_year": 2016,
        "permit_address": "111 Luke",
        "permit_units": 1,
        "permit_category": "SF"
      }
    },
    {
      "type": "Feature",
      "geometry": {
        "type": "Point",
        "coordinates": [
          -122.310394000083,
          38.3068199997433
        ]
      },
      "properties": {
        "permit_year": 2016,
        "permit_address": "14 Lone Wood",
        "permit_units": 1,
        "permit_category": "SF"
      }
    },
    {
      "type": "Feature",
      "geometry": {
        "type": "Point",
        "coordinates": [
          -122.331659100287,
          38.3424411000768
        ]
      },
      "properties": {
        "permit_year": 2016,
        "permit_address": "157 Luke",
        "permit_units": 1,
        "permit_category": "SF"
      }
    },
    {
      "type": "Feature",
      "geometry": {
        "type": "Point",
        "coordinates": [
          -122.332270999907,
          38.3105176001072
        ]
      },
      "properties": {
        "permit_year": 2016,
        "permit_address": "1103 Westview",
        "permit_units": 1,
        "permit_category": "SF"
      }
    },
    {
      "type": "Feature",
      "geometry": {
        "type": "Point",
        "coordinates": [
          -122.336825100198,
          38.3282070003528
        ]
      },
      "properties": {
        "permit_year": 2016,
        "permit_address": "4275 Wine Country",
        "permit_units": 1,
        "permit_category": "SF"
      }
    },
    {
      "type": "Feature",
      "geometry": {
        "type": "Point",
        "coordinates": [
          -122.336825100198,
          38.3282070003528
        ]
      },
      "properties": {
        "permit_year": 2016,
        "permit_address": "4265 Wine Country",
        "permit_units": 1,
        "permit_category": "SF"
      }
    },
    {
      "type": "Feature",
      "geometry": {
        "type": "Point",
        "coordinates": [
          -122.336825100198,
          38.3282070003528
        ]
      },
      "properties": {
        "permit_year": 2016,
        "permit_address": "4255 Wine Country",
        "permit_units": 1,
        "permit_category": "SF"
      }
    },
    {
      "type": "Feature",
      "geometry": {
        "type": "Point",
        "coordinates": [
          -122.336825100198,
          38.3282070003528
        ]
      },
      "properties": {
        "permit_year": 2016,
        "permit_address": "4225 Wine Country",
        "permit_units": 1,
        "permit_category": "SF"
      }
    },
    {
      "type": "Feature",
      "geometry": {
        "type": "Point",
        "coordinates": [
          -122.331656500347,
          38.3424418995741
        ]
      },
      "properties": {
        "permit_year": 2016,
        "permit_address": "164 Luke",
        "permit_units": 1,
        "permit_category": "SF"
      }
    },
    {
      "type": "Feature",
      "geometry": {
        "type": "Point",
        "coordinates": [
          -122.295156399948,
          38.2790953004078
        ]
      },
      "properties": {
        "permit_year": 2016,
        "permit_address": "2252 Eva",
        "permit_units": 1,
        "permit_category": "2 to 4"
      }
    },
    {
      "type": "Feature",
      "geometry": {
        "type": "Point",
        "coordinates": [
          -122.294728200346,
          38.2788743001089
        ]
      },
      "properties": {
        "permit_year": 2016,
        "permit_address": "2171 Eva",
        "permit_units": 1,
        "permit_category": "2 to 4"
      }
    },
    {
      "type": "Feature",
      "geometry": {
        "type": "Point",
        "coordinates": [
          -122.294963900064,
          38.2788687998553
        ]
      },
      "properties": {
        "permit_year": 2016,
        "permit_address": "2191 Eva",
        "permit_units": 1,
        "permit_category": "2 to 4"
      }
    },
    {
      "type": "Feature",
      "geometry": {
        "type": "Point",
        "coordinates": [
          -122.294480900273,
          38.2786367001237
        ]
      },
      "properties": {
        "permit_year": 2016,
        "permit_address": "2131 Eva",
        "permit_units": 1,
        "permit_category": "2 to 4"
      }
    },
    {
      "type": "Feature",
      "geometry": {
        "type": "Point",
        "coordinates": [
          -122.294633900134,
          38.2788718998184
        ]
      },
      "properties": {
        "permit_year": 2016,
        "permit_address": "2163 Eva",
        "permit_units": 1,
        "permit_category": "2 to 4"
      }
    },
    {
      "type": "Feature",
      "geometry": {
        "type": "Point",
        "coordinates": [
          -122.294481799595,
          38.2786737998561
        ]
      },
      "properties": {
        "permit_year": 2016,
        "permit_address": "2135 Eva",
        "permit_units": 1,
        "permit_category": "2 to 4"
      }
    },
    {
      "type": "Feature",
      "geometry": {
        "type": "Point",
        "coordinates": [
          -122.294681000328,
          38.2788726003902
        ]
      },
      "properties": {
        "permit_year": 2016,
        "permit_address": "2167 Eva",
        "permit_units": 1,
        "permit_category": "2 to 4"
      }
    },
    {
      "type": "Feature",
      "geometry": {
        "type": "Point",
        "coordinates": [
          -122.295011100082,
          38.278866799763
        ]
      },
      "properties": {
        "permit_year": 2016,
        "permit_address": "2195 Eva",
        "permit_units": 1,
        "permit_category": "2 to 4"
      }
    },
    {
      "type": "Feature",
      "geometry": {
        "type": "Point",
        "coordinates": [
          -122.295117999796,
          38.2790940998129
        ]
      },
      "properties": {
        "permit_year": 2016,
        "permit_address": "2228 Eva",
        "permit_units": 1,
        "permit_category": "2 to 4"
      }
    },
    {
      "type": "Feature",
      "geometry": {
        "type": "Point",
        "coordinates": [
          -122.295183900317,
          38.2790996000666
        ]
      },
      "properties": {
        "permit_year": 2016,
        "permit_address": "2248 Eva",
        "permit_units": 1,
        "permit_category": "2 to 4"
      }
    },
    {
      "type": "Feature",
      "geometry": {
        "type": "Point",
        "coordinates": [
          -122.294587700162,
          38.2788656000674
        ]
      },
      "properties": {
        "permit_year": 2016,
        "permit_address": "2159 Eva",
        "permit_units": 1,
        "permit_category": "2 to 4"
      }
    },
    {
      "type": "Feature",
      "geometry": {
        "type": "Point",
        "coordinates": [
          -122.29514429957,
          38.2790962995546
        ]
      },
      "properties": {
        "permit_year": 2016,
        "permit_address": "2236 Eva",
        "permit_units": 1,
        "permit_category": "2 to 4"
      }
    },
    {
      "type": "Feature",
      "geometry": {
        "type": "Point",
        "coordinates": [
          -122.295170700068,
          38.2790985001957
        ]
      },
      "properties": {
        "permit_year": 2016,
        "permit_address": "2244 Eva",
        "permit_units": 1,
        "permit_category": "2 to 4"
      }
    },
    {
      "type": "Feature",
      "geometry": {
        "type": "Point",
        "coordinates": [
          -122.295157499819,
          38.2790974003248
        ]
      },
      "properties": {
        "permit_year": 2016,
        "permit_address": "2240 Eva",
        "permit_units": 1,
        "permit_category": "2 to 4"
      }
    },
    {
      "type": "Feature",
      "geometry": {
        "type": "Point",
        "coordinates": [
          -122.295169199999,
          38.2790979003479
        ]
      },
      "properties": {
        "permit_year": 2016,
        "permit_address": "2256 Eva",
        "permit_units": 1,
        "permit_category": "2 to 4"
      }
    },
    {
      "type": "Feature",
      "geometry": {
        "type": "Point",
        "coordinates": [
          -122.295182099874,
          38.2791005002879
        ]
      },
      "properties": {
        "permit_year": 2016,
        "permit_address": "2260 Eva",
        "permit_units": 1,
        "permit_category": "2 to 4"
      }
    },
    {
      "type": "Feature",
      "geometry": {
        "type": "Point",
        "coordinates": [
          -122.294518900227,
          38.2788170996295
        ]
      },
      "properties": {
        "permit_year": 2016,
        "permit_address": "2151 Eva",
        "permit_units": 1,
        "permit_category": "2 to 4"
      }
    },
    {
      "type": "Feature",
      "geometry": {
        "type": "Point",
        "coordinates": [
          -122.295131200045,
          38.2790951996838
        ]
      },
      "properties": {
        "permit_year": 2016,
        "permit_address": "2232 Eva",
        "permit_units": 1,
        "permit_category": "2 to 4"
      }
    },
    {
      "type": "Feature",
      "geometry": {
        "type": "Point",
        "coordinates": [
          -122.294525500352,
          38.2788246998001
        ]
      },
      "properties": {
        "permit_year": 2016,
        "permit_address": "2152 Eva",
        "permit_units": 1,
        "permit_category": "2 to 4"
      }
    },
    {
      "type": "Feature",
      "geometry": {
        "type": "Point",
        "coordinates": [
          -122.294787099645,
          38.2788736004364
        ]
      },
      "properties": {
        "permit_year": 2016,
        "permit_address": "2176 Eva",
        "permit_units": 1,
        "permit_category": "2 to 4"
      }
    },
    {
      "type": "Feature",
      "geometry": {
        "type": "Point",
        "coordinates": [
          -122.294692800332,
          38.2788729996892
        ]
      },
      "properties": {
        "permit_year": 2016,
        "permit_address": "2168 Eva",
        "permit_units": 1,
        "permit_category": "2 to 4"
      }
    },
    {
      "type": "Feature",
      "geometry": {
        "type": "Point",
        "coordinates": [
          -122.29455709983,
          38.2788519996201
        ]
      },
      "properties": {
        "permit_year": 2016,
        "permit_address": "2156 Eva",
        "permit_units": 1,
        "permit_category": "2 to 4"
      }
    },
    {
      "type": "Feature",
      "geometry": {
        "type": "Point",
        "coordinates": [
          -122.294881499681,
          38.2788719996431
        ]
      },
      "properties": {
        "permit_year": 2016,
        "permit_address": "2184 Eva",
        "permit_units": 1,
        "permit_category": "2 to 4"
      }
    },
    {
      "type": "Feature",
      "geometry": {
        "type": "Point",
        "coordinates": [
          -122.294822499659,
          38.2788729996892
        ]
      },
      "properties": {
        "permit_year": 2016,
        "permit_address": "2179 Eva",
        "permit_units": 1,
        "permit_category": "2 to 4"
      }
    },
    {
      "type": "Feature",
      "geometry": {
        "type": "Point",
        "coordinates": [
          -122.294739899627,
          38.2788742002842
        ]
      },
      "properties": {
        "permit_year": 2016,
        "permit_address": "2172 Eva",
        "permit_units": 1,
        "permit_category": "2 to 4"
      }
    },
    {
      "type": "Feature",
      "geometry": {
        "type": "Point",
        "coordinates": [
          -122.294480000052,
          38.278599700216
        ]
      },
      "properties": {
        "permit_year": 2016,
        "permit_address": "2127 Eva",
        "permit_units": 1,
        "permit_category": "2 to 4"
      }
    },
    {
      "type": "Feature",
      "geometry": {
        "type": "Point",
        "coordinates": [
          -122.294480699724,
          38.2785255996768
        ]
      },
      "properties": {
        "permit_year": 2016,
        "permit_address": "2119 Eva",
        "permit_units": 1,
        "permit_category": "2 to 4"
      }
    },
    {
      "type": "Feature",
      "geometry": {
        "type": "Point",
        "coordinates": [
          -122.294500400273,
          38.278783699708
        ]
      },
      "properties": {
        "permit_year": 2016,
        "permit_address": "2147 Eva",
        "permit_units": 1,
        "permit_category": "2 to 4"
      }
    },
    {
      "type": "Feature",
      "geometry": {
        "type": "Point",
        "coordinates": [
          -122.294869699677,
          38.2788722001919
        ]
      },
      "properties": {
        "permit_year": 2016,
        "permit_address": "2183 Eva",
        "permit_units": 1,
        "permit_category": "2 to 4"
      }
    },
    {
      "type": "Feature",
      "geometry": {
        "type": "Point",
        "coordinates": [
          -122.294480000052,
          38.2785625995843
        ]
      },
      "properties": {
        "permit_year": 2016,
        "permit_address": "2123 Eva",
        "permit_units": 1,
        "permit_category": "2 to 4"
      }
    },
    {
      "type": "Feature",
      "geometry": {
        "type": "Point",
        "coordinates": [
          -122.294548600338,
          38.2788456000445
        ]
      },
      "properties": {
        "permit_year": 2016,
        "permit_address": "2155 Eva",
        "permit_units": 1,
        "permit_category": "2 to 4"
      }
    },
    {
      "type": "Feature",
      "geometry": {
        "type": "Point",
        "coordinates": [
          -122.294486399628,
          38.2787106001142
        ]
      },
      "properties": {
        "permit_year": 2016,
        "permit_address": "2139 Eva",
        "permit_units": 1,
        "permit_category": "2 to 4"
      }
    },
    {
      "type": "Feature",
      "geometry": {
        "type": "Point",
        "coordinates": [
          -122.294491200209,
          38.2787474003723
        ]
      },
      "properties": {
        "permit_year": 2016,
        "permit_address": "2143 Eva",
        "permit_units": 1,
        "permit_category": "2 to 4"
      }
    },
    {
      "type": "Feature",
      "geometry": {
        "type": "Point",
        "coordinates": [
          -122.29477529964,
          38.2788738000859
        ]
      },
      "properties": {
        "permit_year": 2016,
        "permit_address": "2175 Eva",
        "permit_units": 1,
        "permit_category": "2 to 4"
      }
    },
    {
      "type": "Feature",
      "geometry": {
        "type": "Point",
        "coordinates": [
          -122.29491679987,
          38.2788707001228
        ]
      },
      "properties": {
        "permit_year": 2016,
        "permit_address": "2187 Eva",
        "permit_units": 1,
        "permit_category": "2 to 4"
      }
    },
    {
      "type": "Feature",
      "geometry": {
        "type": "Point",
        "coordinates": [
          -122.293817900276,
          38.2924320997616
        ]
      },
      "properties": {
        "permit_year": 2016,
        "permit_address": "1787 Laurel",
        "permit_units": 1,
        "permit_category": "SU"
      }
    },
    {
      "type": "Feature",
      "geometry": {
        "type": "Point",
        "coordinates": [
          -122.270763999959,
          38.301104999696
        ]
      },
      "properties": {
        "permit_year": 2016,
        "permit_address": "64 Julian",
        "permit_units": 1,
        "permit_category": "SF"
      }
    },
    {
      "type": "Feature",
      "geometry": {
        "type": "Point",
        "coordinates": [
          -122.306811799825,
          38.2999990997787
        ]
      },
      "properties": {
        "permit_year": 2016,
        "permit_address": "2614 First",
        "permit_units": 48,
        "permit_category": "5+"
      }
    },
    {
      "type": "Feature",
      "geometry": {
        "type": "Point",
        "coordinates": [
          -122.257309599858,
          38.286287200394
        ]
      },
      "properties": {
        "permit_year": 2016,
        "permit_address": "1539 Juanita",
        "permit_units": 1,
        "permit_category": "SF"
      }
    },
    {
      "type": "Feature",
      "geometry": {
        "type": "Point",
        "coordinates": [
          -122.331659100287,
          38.3424411000768
        ]
      },
      "properties": {
        "permit_year": 2016,
        "permit_address": "99 Luke Drive",
        "permit_units": 1,
        "permit_category": "SF"
      }
    },
    {
      "type": "Feature",
      "geometry": {
        "type": "Point",
        "coordinates": [
          -122.331659100287,
          38.3424411000768
        ]
      },
      "properties": {
        "permit_year": 2016,
        "permit_address": "149 Luke",
        "permit_units": 1,
        "permit_category": "SF"
      }
    },
    {
      "type": "Feature",
      "geometry": {
        "type": "Point",
        "coordinates": [
          -122.331656500347,
          38.3424418995741
        ]
      },
      "properties": {
        "permit_year": 2016,
        "permit_address": "134 Luke",
        "permit_units": 1,
        "permit_category": "SF"
      }
    },
    {
      "type": "Feature",
      "geometry": {
        "type": "Point",
        "coordinates": [
          -122.261228800369,
          38.3057925000239
        ]
      },
      "properties": {
        "permit_year": 2016,
        "permit_address": "460 Monte Vista",
        "permit_units": 1,
        "permit_category": "SF"
      }
    },
    {
      "type": "Feature",
      "geometry": {
        "type": "Point",
        "coordinates": [
          -122.334039600347,
          38.3128720998675
        ]
      },
      "properties": {
        "permit_year": 2016,
        "permit_address": "15 Forest",
        "permit_units": 1,
        "permit_category": "SU"
      }
    },
    {
      "type": "Feature",
      "geometry": {
        "type": "Point",
        "coordinates": [
          -122.336825100198,
          38.3282070003528
        ]
      },
      "properties": {
        "permit_year": 2016,
        "permit_address": "4245 Wine Country",
        "permit_units": 1,
        "permit_category": "SF"
      }
    },
    {
      "type": "Feature",
      "geometry": {
        "type": "Point",
        "coordinates": [
          -122.336825100198,
          38.3282070003528
        ]
      },
      "properties": {
        "permit_year": 2016,
        "permit_address": "4215 Wine Country",
        "permit_units": 1,
        "permit_category": "SF"
      }
    },
    {
      "type": "Feature",
      "geometry": {
        "type": "Point",
        "coordinates": [
          -122.310141000107,
          38.3069510003884
        ]
      },
      "properties": {
        "permit_year": 2016,
        "permit_address": "10 Lone Wood",
        "permit_units": 1,
        "permit_category": "SF"
      }
    },
    {
      "type": "Feature",
      "geometry": {
        "type": "Point",
        "coordinates": [
          -122.300326999891,
          38.304224999684
        ]
      },
      "properties": {
        "permit_year": 2016,
        "permit_address": "1709 F",
        "permit_units": 1,
        "permit_category": "SF"
      }
    },
    {
      "type": "Feature",
      "geometry": {
        "type": "Point",
        "coordinates": [
          -122.340435700147,
          38.3125642997027
        ]
      },
      "properties": {
        "permit_year": 2016,
        "permit_address": "6 Camilla",
        "permit_units": 1,
        "permit_category": "SF"
      }
    },
    {
      "type": "Feature",
      "geometry": {
        "type": "Point",
        "coordinates": [
          -122.257610200051,
          38.2863163995822
        ]
      },
      "properties": {
        "permit_year": 2016,
        "permit_address": "1528 Juanita",
        "permit_units": 1,
        "permit_category": "SF"
      }
    },
    {
      "type": "Feature",
      "geometry": {
        "type": "Point",
        "coordinates": [
          -122.331659100287,
          38.3424411000768
        ]
      },
      "properties": {
        "permit_year": 2016,
        "permit_address": "125 Luke",
        "permit_units": 1,
        "permit_category": "SF"
      }
    },
    {
      "type": "Feature",
      "geometry": {
        "type": "Point",
        "coordinates": [
          -122.257627699958,
          38.2863613998588
        ]
      },
      "properties": {
        "permit_year": 2016,
        "permit_address": "1540 Juanita",
        "permit_units": 1,
        "permit_category": "SF"
      }
    },
    {
      "type": "Feature",
      "geometry": {
        "type": "Point",
        "coordinates": [
          -122.323794199842,
          38.3357803999456
        ]
      },
      "properties": {
        "permit_year": 2016,
        "permit_address": "1036 Wine Country",
        "permit_units": 1,
        "permit_category": "SF"
      }
    },
    {
      "type": "Feature",
      "geometry": {
        "type": "Point",
        "coordinates": [
          -122.256093600439,
          38.2861996999562
        ]
      },
      "properties": {
        "permit_year": 2016,
        "permit_address": "1533 Juanita",
        "permit_units": 1,
        "permit_category": "SF"
      }
    },
    {
      "type": "Feature",
      "geometry": {
        "type": "Point",
        "coordinates": [
          -122.297333399617,
          38.3321810001531
        ]
      },
      "properties": {
        "permit_year": 2016,
        "permit_address": "104 Old Vine",
        "permit_units": 1,
        "permit_category": "SF"
      }
    },
    {
      "type": "Feature",
      "geometry": {
        "type": "Point",
        "coordinates": [
          -122.310763000012,
          38.3071279995576
        ]
      },
      "properties": {
        "permit_year": 2016,
        "permit_address": "5 Lone Wood",
        "permit_units": 1,
        "permit_category": "SF"
      }
    },
    {
      "type": "Feature",
      "geometry": {
        "type": "Point",
        "coordinates": [
          -122.300246999799,
          38.3035033998621
        ]
      },
      "properties": {
        "permit_year": 2016,
        "permit_address": "1672 E",
        "permit_units": 1,
        "permit_category": "SF"
      }
    },
    {
      "type": "Feature",
      "geometry": {
        "type": "Point",
        "coordinates": [
          -122.318706299756,
          38.3126355997532
        ]
      },
      "properties": {
        "permit_year": 2016,
        "permit_address": "3019 Baywood",
        "permit_units": 1,
        "permit_category": "SU"
      }
    },
    {
      "type": "Feature",
      "geometry": {
        "type": "Point",
        "coordinates": [
          -122.298007499946,
          38.3329796997534
        ]
      },
      "properties": {
        "permit_year": 2016,
        "permit_address": "124 Old Vine",
        "permit_units": 1,
        "permit_category": "SF"
      }
    },
    {
      "type": "Feature",
      "geometry": {
        "type": "Point",
        "coordinates": [
          -122.297858000246,
          38.3328281001367
        ]
      },
      "properties": {
        "permit_year": 2016,
        "permit_address": "120 Old Vine",
        "permit_units": 1,
        "permit_category": "SF"
      }
    },
    {
      "type": "Feature",
      "geometry": {
        "type": "Point",
        "coordinates": [
          -122.297723500339,
          38.3326680999529
        ]
      },
      "properties": {
        "permit_year": 2016,
        "permit_address": "116 Old Vine",
        "permit_units": 1,
        "permit_category": "SF"
      }
    },
    {
      "type": "Feature",
      "geometry": {
        "type": "Point",
        "coordinates": [
          -122.297594899985,
          38.3325050996307
        ]
      },
      "properties": {
        "permit_year": 2016,
        "permit_address": "112 Old Vine",
        "permit_units": 1,
        "permit_category": "SF"
      }
    },
    {
      "type": "Feature",
      "geometry": {
        "type": "Point",
        "coordinates": [
          -122.291074228793,
          38.3285269728416
        ]
      },
      "properties": {
        "permit_year": 2015,
        "permit_address": "931 SERENDIPITY WAY",
        "permit_units": 1,
        "permit_category": "SF"
      }
    },
    {
      "type": "Feature",
      "geometry": {
        "type": "Point",
        "coordinates": [
          -122.274707265428,
          38.2916557609047
        ]
      },
      "properties": {
        "permit_year": 2015,
        "permit_address": "716 SARATOGA DR",
        "permit_units": 1,
        "permit_category": "SF"
      }
    },
    {
      "type": "Feature",
      "geometry": {
        "type": "Point",
        "coordinates": [
          -122.32957628122,
          38.3219492396657
        ]
      },
      "properties": {
        "permit_year": 2015,
        "permit_address": "2537 NAPIER CT",
        "permit_units": 1,
        "permit_category": "SF"
      }
    },
    {
      "type": "Feature",
      "geometry": {
        "type": "Point",
        "coordinates": [
          -122.290573307312,
          38.3285676365872
        ]
      },
      "properties": {
        "permit_year": 2015,
        "permit_address": "915 SERENDIPITY WAY",
        "permit_units": 1,
        "permit_category": "SF"
      }
    },
    {
      "type": "Feature",
      "geometry": {
        "type": "Point",
        "coordinates": [
          -122.271983845778,
          38.2905494715809
        ]
      },
      "properties": {
        "permit_year": 2015,
        "permit_address": "888 ERIN WAY",
        "permit_units": 1,
        "permit_category": "SF"
      }
    },
    {
      "type": "Feature",
      "geometry": {
        "type": "Point",
        "coordinates": [
          -122.291030903953,
          38.3291634041678
        ]
      },
      "properties": {
        "permit_year": 2015,
        "permit_address": "932 SERENDIPITY WAY",
        "permit_units": 1,
        "permit_category": "SF"
      }
    },
    {
      "type": "Feature",
      "geometry": {
        "type": "Point",
        "coordinates": [
          -122.290554597816,
          38.3292816830033
        ]
      },
      "properties": {
        "permit_year": 2015,
        "permit_address": "908 SERENDIPITY WAY",
        "permit_units": 1,
        "permit_category": "SF"
      }
    },
    {
      "type": "Feature",
      "geometry": {
        "type": "Point",
        "coordinates": [
          -122.262148501952,
          38.2870658909781
        ]
      },
      "properties": {
        "permit_year": 2015,
        "permit_address": "218 CARDWELL CT",
        "permit_units": 1,
        "permit_category": "SF"
      }
    },
    {
      "type": "Feature",
      "geometry": {
        "type": "Point",
        "coordinates": [
          -122.329926650794,
          38.3217608532808
        ]
      },
      "properties": {
        "permit_year": 2015,
        "permit_address": "2549 NAPIER CT",
        "permit_units": 1,
        "permit_category": "SF"
      }
    },
    {
      "type": "Feature",
      "geometry": {
        "type": "Point",
        "coordinates": [
          -122.33997946508,
          38.3088475536717
        ]
      },
      "properties": {
        "permit_year": 2015,
        "permit_address": "3413 DEERFIELD CT",
        "permit_units": 1,
        "permit_category": "SF"
      }
    },
    {
      "type": "Feature",
      "geometry": {
        "type": "Point",
        "coordinates": [
          -122.340281987124,
          38.3093777840575
        ]
      },
      "properties": {
        "permit_year": 2015,
        "permit_address": "4048 BROWNS VALLEY RD",
        "permit_units": 1,
        "permit_category": "SF"
      }
    },
    {
      "type": "Feature",
      "geometry": {
        "type": "Point",
        "coordinates": [
          -122.259933176775,
          38.3064680176849
        ]
      },
      "properties": {
        "permit_year": 2015,
        "permit_address": "435 MONTE VISTA CT",
        "permit_units": 1,
        "permit_category": "SU"
      }
    },
    {
      "type": "Feature",
      "geometry": {
        "type": "Point",
        "coordinates": [
          -122.297175888756,
          38.331608479148
        ]
      },
      "properties": {
        "permit_year": 2015,
        "permit_address": "110 SASHA CT",
        "permit_units": 1,
        "permit_category": "SF"
      }
    },
    {
      "type": "Feature",
      "geometry": {
        "type": "Point",
        "coordinates": [
          -122.297074890394,
          38.3314721239394
        ]
      },
      "properties": {
        "permit_year": 2015,
        "permit_address": "116 SASHA CT",
        "permit_units": 1,
        "permit_category": "SF"
      }
    },
    {
      "type": "Feature",
      "geometry": {
        "type": "Point",
        "coordinates": [
          -122.297560487426,
          38.3312353324447
        ]
      },
      "properties": {
        "permit_year": 2015,
        "permit_address": "117 SASHA CT",
        "permit_units": 1,
        "permit_category": "SF"
      }
    },
    {
      "type": "Feature",
      "geometry": {
        "type": "Point",
        "coordinates": [
          -122.297289787893,
          38.3317229610458
        ]
      },
      "properties": {
        "permit_year": 2015,
        "permit_address": "104 SASHA CT",
        "permit_units": 1,
        "permit_category": "SF"
      }
    },
    {
      "type": "Feature",
      "geometry": {
        "type": "Point",
        "coordinates": [
          -122.291902812864,
          38.3285003852846
        ]
      },
      "properties": {
        "permit_year": 2015,
        "permit_address": "963 SERENDIPITY WAY",
        "permit_units": 1,
        "permit_category": "SF"
      }
    },
    {
      "type": "Feature",
      "geometry": {
        "type": "Point",
        "coordinates": [
          -122.274296187119,
          38.2917000543141
        ]
      },
      "properties": {
        "permit_year": 2015,
        "permit_address": "732 SARATOGA DR",
        "permit_units": 1,
        "permit_category": "SF"
      }
    },
    {
      "type": "Feature",
      "geometry": {
        "type": "Point",
        "coordinates": [
          -122.272399952196,
          38.2901241713935
        ]
      },
      "properties": {
        "permit_year": 2015,
        "permit_address": "871 ERIN WAY",
        "permit_units": 1,
        "permit_category": "SF"
      }
    },
    {
      "type": "Feature",
      "geometry": {
        "type": "Point",
        "coordinates": [
          -122.27220843617,
          38.2901366216079
        ]
      },
      "properties": {
        "permit_year": 2015,
        "permit_address": "877 ERIN WAY",
        "permit_units": 1,
        "permit_category": "SF"
      }
    },
    {
      "type": "Feature",
      "geometry": {
        "type": "Point",
        "coordinates": [
          -122.265347794265,
          38.3219759081617
        ]
      },
      "properties": {
        "permit_year": 2015,
        "permit_address": "2 OLD COACH RD",
        "permit_units": 1,
        "permit_category": "SF"
      }
    },
    {
      "type": "Feature",
      "geometry": {
        "type": "Point",
        "coordinates": [
          -122.272808283076,
          38.2900952653843
        ]
      },
      "properties": {
        "permit_year": 2015,
        "permit_address": "859 ERIN WAY",
        "permit_units": 1,
        "permit_category": "SF"
      }
    },
    {
      "type": "Feature",
      "geometry": {
        "type": "Point",
        "coordinates": [
          -122.272595552942,
          38.290102960883
        ]
      },
      "properties": {
        "permit_year": 2015,
        "permit_address": "865 ERIN WAY",
        "permit_units": 1,
        "permit_category": "SF"
      }
    },
    {
      "type": "Feature",
      "geometry": {
        "type": "Point",
        "coordinates": [
          -122.272370619009,
          38.2905196176862
        ]
      },
      "properties": {
        "permit_year": 2015,
        "permit_address": "874 ERIN WAY",
        "permit_units": 1,
        "permit_category": "SF"
      }
    },
    {
      "type": "Feature",
      "geometry": {
        "type": "Point",
        "coordinates": [
          -122.272574740832,
          38.2905097988881
        ]
      },
      "properties": {
        "permit_year": 2015,
        "permit_address": "868 ERIN WAY",
        "permit_units": 1,
        "permit_category": "SF"
      }
    },
    {
      "type": "Feature",
      "geometry": {
        "type": "Point",
        "coordinates": [
          -122.264895091735,
          38.2906546571867
        ]
      },
      "properties": {
        "permit_year": 2015,
        "permit_address": "6 AUTUMN CREEK CT",
        "permit_units": 1,
        "permit_category": "SF"
      }
    },
    {
      "type": "Feature",
      "geometry": {
        "type": "Point",
        "coordinates": [
          -122.340591278365,
          38.3093992490761
        ]
      },
      "properties": {
        "permit_year": 2015,
        "permit_address": "404 BROWNS VALLEY RD",
        "permit_units": 1,
        "permit_category": "SF"
      }
    },
    {
      "type": "Feature",
      "geometry": {
        "type": "Point",
        "coordinates": [
          -122.292182434572,
          38.3304349034481
        ]
      },
      "properties": {
        "permit_year": 2015,
        "permit_address": "121 GRIFFEN LN",
        "permit_units": 1,
        "permit_category": "SF"
      }
    },
    {
      "type": "Feature",
      "geometry": {
        "type": "Point",
        "coordinates": [
          -122.259933807199,
          38.3064060247183
        ]
      },
      "properties": {
        "permit_year": 2015,
        "permit_address": "435 MONTE VISTA CT",
        "permit_units": 1,
        "permit_category": "SF"
      }
    },
    {
      "type": "Feature",
      "geometry": {
        "type": "Point",
        "coordinates": [
          -122.27272082041,
          38.2914587761017
        ]
      },
      "properties": {
        "permit_year": 2015,
        "permit_address": "810 ERIN WAY",
        "permit_units": 1,
        "permit_category": "SF"
      }
    },
    {
      "type": "Feature",
      "geometry": {
        "type": "Point",
        "coordinates": [
          -122.265658348154,
          38.2984708485509
        ]
      },
      "properties": {
        "permit_year": 2015,
        "permit_address": "10 PASCALE CT",
        "permit_units": 1,
        "permit_category": "SF"
      }
    },
    {
      "type": "Feature",
      "geometry": {
        "type": "Point",
        "coordinates": [
          -122.291755754824,
          38.329026216187
        ]
      },
      "properties": {
        "permit_year": 2015,
        "permit_address": "972 SERENDIPITY WAY",
        "permit_units": 1,
        "permit_category": "SF"
      }
    },
    {
      "type": "Feature",
      "geometry": {
        "type": "Point",
        "coordinates": [
          -122.291488869316,
          38.3285156980411
        ]
      },
      "properties": {
        "permit_year": 2015,
        "permit_address": "947 SERENDIPITY WAY",
        "permit_units": 1,
        "permit_category": "SF"
      }
    },
    {
      "type": "Feature",
      "geometry": {
        "type": "Point",
        "coordinates": [
          -122.292685661914,
          38.3285985993459
        ]
      },
      "properties": {
        "permit_year": 2015,
        "permit_address": "987 SERENDIPITY WAY",
        "permit_units": 1,
        "permit_category": "SF"
      }
    },
    {
      "type": "Feature",
      "geometry": {
        "type": "Point",
        "coordinates": [
          -122.292339250256,
          38.3286135307899
        ]
      },
      "properties": {
        "permit_year": 2015,
        "permit_address": "979 SERENDIPITY WAY",
        "permit_units": 1,
        "permit_category": "SF"
      }
    },
    {
      "type": "Feature",
      "geometry": {
        "type": "Point",
        "coordinates": [
          -122.290272708918,
          38.3286509003188
        ]
      },
      "properties": {
        "permit_year": 2015,
        "permit_address": "907 SERENDIPITY WAY",
        "permit_units": 1,
        "permit_category": "SF"
      }
    },
    {
      "type": "Feature",
      "geometry": {
        "type": "Point",
        "coordinates": [
          -122.329794827269,
          38.3225043713797
        ]
      },
      "properties": {
        "permit_year": 2015,
        "permit_address": "2534 NAPIER CT",
        "permit_units": 1,
        "permit_category": "SF"
      }
    },
    {
      "type": "Feature",
      "geometry": {
        "type": "Point",
        "coordinates": [
          -122.329972770727,
          38.3224061950899
        ]
      },
      "properties": {
        "permit_year": 2015,
        "permit_address": "2540 NAPIER CT",
        "permit_units": 1,
        "permit_category": "SF"
      }
    },
    {
      "type": "Feature",
      "geometry": {
        "type": "Point",
        "coordinates": [
          -122.330153868106,
          38.3223097571896
        ]
      },
      "properties": {
        "permit_year": 2015,
        "permit_address": "2546 NAPIER CT",
        "permit_units": 1,
        "permit_category": "SF"
      }
    },
    {
      "type": "Feature",
      "geometry": {
        "type": "Point",
        "coordinates": [
          -122.272420406377,
          38.2911865144461
        ]
      },
      "properties": {
        "permit_year": 2015,
        "permit_address": "870 TRISTEN LN",
        "permit_units": 1,
        "permit_category": "SF"
      }
    },
    {
      "type": "Feature",
      "geometry": {
        "type": "Point",
        "coordinates": [
          -122.291280839039,
          38.3285214213266
        ]
      },
      "properties": {
        "permit_year": 2015,
        "permit_address": "939 SERENDIPITY WAY",
        "permit_units": 1,
        "permit_category": "SF"
      }
    },
    {
      "type": "Feature",
      "geometry": {
        "type": "Point",
        "coordinates": [
          -122.272698243829,
          38.2912995313483
        ]
      },
      "properties": {
        "permit_year": 2015,
        "permit_address": "818 ERIN WAY",
        "permit_units": 1,
        "permit_category": "SF"
      }
    },
    {
      "type": "Feature",
      "geometry": {
        "type": "Point",
        "coordinates": [
          -122.291696898693,
          38.328509972957
        ]
      },
      "properties": {
        "permit_year": 2015,
        "permit_address": "955 SERENDIPITY WAY",
        "permit_units": 1,
        "permit_category": "SF"
      }
    },
    {
      "type": "Feature",
      "geometry": {
        "type": "Point",
        "coordinates": [
          -122.273234067998,
          38.2914282504135
        ]
      },
      "properties": {
        "permit_year": 2015,
        "permit_address": "807 ERIN WAY",
        "permit_units": 1,
        "permit_category": "SF"
      }
    },
    {
      "type": "Feature",
      "geometry": {
        "type": "Point",
        "coordinates": [
          -122.273189634294,
          38.2912709239141
        ]
      },
      "properties": {
        "permit_year": 2015,
        "permit_address": "813 ERIN WAY",
        "permit_units": 1,
        "permit_category": "SF"
      }
    },
    {
      "type": "Feature",
      "geometry": {
        "type": "Point",
        "coordinates": [
          -122.273154066107,
          38.2911219853914
        ]
      },
      "properties": {
        "permit_year": 2015,
        "permit_address": "819 ERIN WAY",
        "permit_units": 1,
        "permit_category": "SF"
      }
    },
    {
      "type": "Feature",
      "geometry": {
        "type": "Point",
        "coordinates": [
          -122.273118497021,
          38.2909730468687
        ]
      },
      "properties": {
        "permit_year": 2015,
        "permit_address": "825 ERIN WAY",
        "permit_units": 1,
        "permit_category": "SF"
      }
    },
    {
      "type": "Feature",
      "geometry": {
        "type": "Point",
        "coordinates": [
          -122.273082929733,
          38.2908241074467
        ]
      },
      "properties": {
        "permit_year": 2015,
        "permit_address": "831 ERIN WAY",
        "permit_units": 1,
        "permit_category": "SF"
      }
    },
    {
      "type": "Feature",
      "geometry": {
        "type": "Point",
        "coordinates": [
          -122.273047416405,
          38.2906751788165
        ]
      },
      "properties": {
        "permit_year": 2015,
        "permit_address": "837 ERIN WAY",
        "permit_units": 1,
        "permit_category": "SF"
      }
    },
    {
      "type": "Feature",
      "geometry": {
        "type": "Point",
        "coordinates": [
          -122.273015405936,
          38.2905241808463
        ]
      },
      "properties": {
        "permit_year": 2015,
        "permit_address": "843 ERIN WAY",
        "permit_units": 1,
        "permit_category": "SF"
      }
    },
    {
      "type": "Feature",
      "geometry": {
        "type": "Point",
        "coordinates": [
          -122.273003559167,
          38.2903661133055
        ]
      },
      "properties": {
        "permit_year": 2015,
        "permit_address": "849 ERIN WAY",
        "permit_units": 1,
        "permit_category": "SF"
      }
    },
    {
      "type": "Feature",
      "geometry": {
        "type": "Point",
        "coordinates": [
          -122.292121055842,
          38.328510760763
        ]
      },
      "properties": {
        "permit_year": 2015,
        "permit_address": "971 SERENDIPITY WAY",
        "permit_units": 1,
        "permit_category": "SF"
      }
    },
    {
      "type": "Feature",
      "geometry": {
        "type": "Point",
        "coordinates": [
          -122.339979864379,
          38.309310315119
        ]
      },
      "properties": {
        "permit_year": 2015,
        "permit_address": "3416 DEERFIELD CT",
        "permit_units": 1,
        "permit_category": "SF"
      }
    },
    {
      "type": "Feature",
      "geometry": {
        "type": "Point",
        "coordinates": [
          -122.272664700915,
          38.2911364869594
        ]
      },
      "properties": {
        "permit_year": 2015,
        "permit_address": "824 ERIN WAY",
        "permit_units": 1,
        "permit_category": "SF"
      }
    },
    {
      "type": "Feature",
      "geometry": {
        "type": "Point",
        "coordinates": [
          -122.297045642642,
          38.3313189568045
        ]
      },
      "properties": {
        "permit_year": 2015,
        "permit_address": "122 SASHA CT",
        "permit_units": 1,
        "permit_category": "SF"
      }
    },
    {
      "type": "Feature",
      "geometry": {
        "type": "Point",
        "coordinates": [
          -122.274492824784,
          38.2916771737626
        ]
      },
      "properties": {
        "permit_year": 2015,
        "permit_address": "724 SARATOGA DR",
        "permit_units": 1,
        "permit_category": "SF"
      }
    },
    {
      "type": "Feature",
      "geometry": {
        "type": "Point",
        "coordinates": [
          -122.297670732618,
          38.3313681551163
        ]
      },
      "properties": {
        "permit_year": 2015,
        "permit_address": "111 SASHA CT",
        "permit_units": 1,
        "permit_category": "SF"
      }
    },
    {
      "type": "Feature",
      "geometry": {
        "type": "Point",
        "coordinates": [
          -122.297394970801,
          38.3311464317625
        ]
      },
      "properties": {
        "permit_year": 2015,
        "permit_address": "123 SASHA CT",
        "permit_units": 1,
        "permit_category": "SF"
      }
    },
    {
      "type": "Feature",
      "geometry": {
        "type": "Point",
        "coordinates": [
          -122.289493468848,
          38.2918155335601
        ]
      },
      "properties": {
        "permit_year": 2015,
        "permit_address": "436 ADAMS ST",
        "permit_units": 1,
        "permit_category": "SF"
      }
    },
    {
      "type": "Feature",
      "geometry": {
        "type": "Point",
        "coordinates": [
          -122.284070293409,
          38.290961492379
        ]
      },
      "properties": {
        "permit_year": 2015,
        "permit_address": "356 BROWN ST",
        "permit_units": 1,
        "permit_category": "SU"
      }
    },
    {
      "type": "Feature",
      "geometry": {
        "type": "Point",
        "coordinates": [
          -122.272017128787,
          38.2901490592317
        ]
      },
      "properties": {
        "permit_year": 2015,
        "permit_address": "883 ERIN WAY",
        "permit_units": 1,
        "permit_category": "SF"
      }
    },
    {
      "type": "Feature",
      "geometry": {
        "type": "Point",
        "coordinates": [
          -122.330335303631,
          38.3222138939561
        ]
      },
      "properties": {
        "permit_year": 2015,
        "permit_address": "2552 NAPIER CT",
        "permit_units": 1,
        "permit_category": "SF"
      }
    },
    {
      "type": "Feature",
      "geometry": {
        "type": "Point",
        "coordinates": [
          -122.272452030137,
          38.2914375853763
        ]
      },
      "properties": {
        "permit_year": 2015,
        "permit_address": "873 SARATOGA DR",
        "permit_units": 1,
        "permit_category": "SF"
      }
    },
    {
      "type": "Feature",
      "geometry": {
        "type": "Point",
        "coordinates": [
          -122.272253350112,
          38.2914498701155
        ]
      },
      "properties": {
        "permit_year": 2015,
        "permit_address": "881 SARATOGA DR",
        "permit_units": 1,
        "permit_category": "SF"
      }
    },
    {
      "type": "Feature",
      "geometry": {
        "type": "Point",
        "coordinates": [
          -122.272024632731,
          38.2914630721631
        ]
      },
      "properties": {
        "permit_year": 2015,
        "permit_address": "889 SARATOGA DR",
        "permit_units": 1,
        "permit_category": "SF"
      }
    },
    {
      "type": "Feature",
      "geometry": {
        "type": "Point",
        "coordinates": [
          -122.272182471844,
          38.2905299751783
        ]
      },
      "properties": {
        "permit_year": 2015,
        "permit_address": "880 ERIN WAY",
        "permit_units": 1,
        "permit_category": "SF"
      }
    },
    {
      "type": "Feature",
      "geometry": {
        "type": "Point",
        "coordinates": [
          -122.297749596866,
          38.331500254733
        ]
      },
      "properties": {
        "permit_year": 2015,
        "permit_address": "105 SASHA CT",
        "permit_units": 1,
        "permit_category": "SF"
      }
    },
    {
      "type": "Feature",
      "geometry": {
        "type": "Point",
        "coordinates": [
          -122.330089099832,
          38.3216561110407
        ]
      },
      "properties": {
        "permit_year": 2015,
        "permit_address": "2555 NAPIER CT",
        "permit_units": 1,
        "permit_category": "SF"
      }
    },
    {
      "type": "Feature",
      "geometry": {
        "type": "Point",
        "coordinates": [
          -122.271817525159,
          38.2901819240566
        ]
      },
      "properties": {
        "permit_year": 2015,
        "permit_address": "889 ERIN WAY",
        "permit_units": 1,
        "permit_category": "SF"
      }
    },
    {
      "type": "Feature",
      "geometry": {
        "type": "Point",
        "coordinates": [
          -122.330508776559,
          38.3215142969473
        ]
      },
      "properties": {
        "permit_year": 2015,
        "permit_address": "2567 NAPIER CT",
        "permit_units": 1,
        "permit_category": "SF"
      }
    },
    {
      "type": "Feature",
      "geometry": {
        "type": "Point",
        "coordinates": [
          -122.329751121117,
          38.3218547182207
        ]
      },
      "properties": {
        "permit_year": 2015,
        "permit_address": "2543 NAPIER CT",
        "permit_units": 1,
        "permit_category": "SF"
      }
    },
    {
      "type": "Feature",
      "geometry": {
        "type": "Point",
        "coordinates": [
          -122.329401894582,
          38.3220464473857
        ]
      },
      "properties": {
        "permit_year": 2015,
        "permit_address": "2531 NAPIER CT",
        "permit_units": 1,
        "permit_category": "SF"
      }
    },
    {
      "type": "Feature",
      "geometry": {
        "type": "Point",
        "coordinates": [
          -122.330526909589,
          38.3221341186947
        ]
      },
      "properties": {
        "permit_year": 2015,
        "permit_address": "2558 NAPIER CT",
        "permit_units": 1,
        "permit_category": "SF"
      }
    },
    {
      "type": "Feature",
      "geometry": {
        "type": "Point",
        "coordinates": [
          -122.330856419388,
          38.3218835181099
        ]
      },
      "properties": {
        "permit_year": 2015,
        "permit_address": "2570 NAPIER CT",
        "permit_units": 1,
        "permit_category": "SF"
      }
    },
    {
      "type": "Feature",
      "geometry": {
        "type": "Point",
        "coordinates": [
          -122.330266349013,
          38.3215562737031
        ]
      },
      "properties": {
        "permit_year": 2015,
        "permit_address": "2561 NAPIER CT",
        "permit_units": 1,
        "permit_category": "SF"
      }
    },
    {
      "type": "Feature",
      "geometry": {
        "type": "Point",
        "coordinates": [
          -122.330709378435,
          38.3220335214299
        ]
      },
      "properties": {
        "permit_year": 2015,
        "permit_address": "2564 NAPIER CT",
        "permit_units": 1,
        "permit_category": "SF"
      }
    },
    {
      "type": "Feature",
      "geometry": {
        "type": "Point",
        "coordinates": [
          -122.293823563307,
          38.2780894500681
        ]
      },
      "properties": {
        "permit_year": 2015,
        "permit_address": "2062 EVA ST",
        "permit_units": 1,
        "permit_category": "2 to 4"
      }
    },
    {
      "type": "Feature",
      "geometry": {
        "type": "Point",
        "coordinates": [
          -122.293814657321,
          38.2783474322882
        ]
      },
      "properties": {
        "permit_year": 2015,
        "permit_address": "2050 EVA ST",
        "permit_units": 1,
        "permit_category": "2 to 4"
      }
    },
    {
      "type": "Feature",
      "geometry": {
        "type": "Point",
        "coordinates": [
          -122.293823137927,
          38.2781822457141
        ]
      },
      "properties": {
        "permit_year": 2015,
        "permit_address": "2058 EVA ST",
        "permit_units": 1,
        "permit_category": "2 to 4"
      }
    },
    {
      "type": "Feature",
      "geometry": {
        "type": "Point",
        "coordinates": [
          -122.293591603869,
          38.2782546986954
        ]
      },
      "properties": {
        "permit_year": 2015,
        "permit_address": "2042 EVA ST",
        "permit_units": 1,
        "permit_category": "2 to 4"
      }
    },
    {
      "type": "Feature",
      "geometry": {
        "type": "Point",
        "coordinates": [
          -122.294036318621,
          38.2783465482547
        ]
      },
      "properties": {
        "permit_year": 2015,
        "permit_address": "2078 EVA ST",
        "permit_units": 1,
        "permit_category": "2 to 4"
      }
    },
    {
      "type": "Feature",
      "geometry": {
        "type": "Point",
        "coordinates": [
          -122.294258988961,
          38.2782478692438
        ]
      },
      "properties": {
        "permit_year": 2015,
        "permit_address": "2086 EVA ST",
        "permit_units": 1,
        "permit_category": "2 to 4"
      }
    },
    {
      "type": "Feature",
      "geometry": {
        "type": "Point",
        "coordinates": [
          -122.294027355078,
          38.2782497083574
        ]
      },
      "properties": {
        "permit_year": 2015,
        "permit_address": "2074 EVA ST",
        "permit_units": 1,
        "permit_category": "2 to 4"
      }
    },
    {
      "type": "Feature",
      "geometry": {
        "type": "Point",
        "coordinates": [
          -122.294258115719,
          38.278179570231
        ]
      },
      "properties": {
        "permit_year": 2015,
        "permit_address": "2090 EVA ST",
        "permit_units": 1,
        "permit_category": "2 to 4"
      }
    },
    {
      "type": "Feature",
      "geometry": {
        "type": "Point",
        "coordinates": [
          -122.294026481837,
          38.2781814084453
        ]
      },
      "properties": {
        "permit_year": 2015,
        "permit_address": "2070 EVA ST",
        "permit_units": 1,
        "permit_category": "2 to 4"
      }
    },
    {
      "type": "Feature",
      "geometry": {
        "type": "Point",
        "coordinates": [
          -122.294025295631,
          38.2780886163966
        ]
      },
      "properties": {
        "permit_year": 2015,
        "permit_address": "2066 EVA ST",
        "permit_units": 1,
        "permit_category": "2 to 4"
      }
    },
    {
      "type": "Feature",
      "geometry": {
        "type": "Point",
        "coordinates": [
          -122.293598834419,
          38.2783508667991
        ]
      },
      "properties": {
        "permit_year": 2015,
        "permit_address": "2046 EVA ST",
        "permit_units": 1,
        "permit_category": "2 to 4"
      }
    },
    {
      "type": "Feature",
      "geometry": {
        "type": "Point",
        "coordinates": [
          -122.294252501252,
          38.2783448323482
        ]
      },
      "properties": {
        "permit_year": 2015,
        "permit_address": "2082 EVA ST",
        "permit_units": 1,
        "permit_category": "2 to 4"
      }
    },
    {
      "type": "Feature",
      "geometry": {
        "type": "Point",
        "coordinates": [
          -122.293822826762,
          38.2782505492235
        ]
      },
      "properties": {
        "permit_year": 2015,
        "permit_address": "2054 EVA ST",
        "permit_units": 1,
        "permit_category": "2 to 4"
      }
    },
    {
      "type": "Feature",
      "geometry": {
        "type": "Point",
        "coordinates": [
          -122.294256026594,
          38.2780881235681
        ]
      },
      "properties": {
        "permit_year": 2015,
        "permit_address": "2094 EVA ST",
        "permit_units": 1,
        "permit_category": "2 to 4"
      }
    },
    {
      "type": "Feature",
      "geometry": {
        "type": "Point",
        "coordinates": [
          -122.293592340414,
          38.2780936004394
        ]
      },
      "properties": {
        "permit_year": 2015,
        "permit_address": "2034 EVA ST",
        "permit_units": 1,
        "permit_category": "2 to 4"
      }
    },
    {
      "type": "Feature",
      "geometry": {
        "type": "Point",
        "coordinates": [
          -122.293591915934,
          38.2781863960853
        ]
      },
      "properties": {
        "permit_year": 2015,
        "permit_address": "2038 EVA ST",
        "permit_units": 1,
        "permit_category": "2 to 4"
      }
    },
    {
      "type": "Feature",
      "geometry": {
        "type": "Point",
        "coordinates": [
          -122.290006920583,
          38.3079577185739
        ]
      },
      "properties": {
        "permit_year": 2015,
        "permit_address": "1962 YAJOME ST",
        "permit_units": 1,
        "permit_category": "SU"
      }
    },
    {
      "type": "Feature",
      "geometry": {
        "type": "Point",
        "coordinates": [
          -122.291529288446,
          38.3070441206897
        ]
      },
      "properties": {
        "permit_year": 2015,
        "permit_address": "1964 MAIN ST",
        "permit_units": 1,
        "permit_category": "SF"
      }
    },
    {
      "type": "Feature",
      "geometry": {
        "type": "Point",
        "coordinates": [
          -122.273004865882,
          38.2901293451932
        ]
      },
      "properties": {
        "permit_year": 2015,
        "permit_address": "853 ERIN WAY",
        "permit_units": 1,
        "permit_category": "SF"
      }
    },
    {
      "type": "Feature",
      "geometry": {
        "type": "Point",
        "coordinates": [
          -122.290835341877,
          38.3285103749539
        ]
      },
      "properties": {
        "permit_year": 2015,
        "permit_address": "923 SERENDIPITY WAY",
        "permit_units": 1,
        "permit_category": "SF"
      }
    },
    {
      "type": "Feature",
      "geometry": {
        "type": "Point",
        "coordinates": [
          -122.290807188601,
          38.3291668917387
        ]
      },
      "properties": {
        "permit_year": 2015,
        "permit_address": "920 SERENDIPITY WAY",
        "permit_units": 1,
        "permit_category": "SF"
      }
    },
    {
      "type": "Feature",
      "geometry": {
        "type": "Point",
        "coordinates": [
          -122.291458224018,
          38.3290883602397
        ]
      },
      "properties": {
        "permit_year": 2015,
        "permit_address": "958 SERENDIPITY WAY",
        "permit_units": 1,
        "permit_category": "SF"
      }
    },
    {
      "type": "Feature",
      "geometry": {
        "type": "Point",
        "coordinates": [
          -122.291241455029,
          38.329125300792
        ]
      },
      "properties": {
        "permit_year": 2015,
        "permit_address": "946 SERENDIPITY WAY",
        "permit_units": 1,
        "permit_category": "SF"
      }
    },
    {
      "type": "Feature",
      "geometry": {
        "type": "Point",
        "coordinates": [
          -122.310314999138,
          38.3074550002481
        ]
      },
      "properties": {
        "permit_year": 2014,
        "permit_address": "2 LONE WOOD CT",
        "permit_units": 1,
        "permit_category": "SF"
      }
    },
    {
      "type": "Feature",
      "geometry": {
        "type": "Point",
        "coordinates": [
          -122.28969990013,
          38.3065801001915
        ]
      },
      "properties": {
        "permit_year": 2014,
        "permit_address": "917 JACKSON ST",
        "permit_units": 1,
        "permit_category": "SU"
      }
    },
    {
      "type": "Feature",
      "geometry": {
        "type": "Point",
        "coordinates": [
          -122.329320001417,
          38.3099809998233
        ]
      },
      "properties": {
        "permit_year": 2014,
        "permit_address": "3205 ATHERTON CIR",
        "permit_units": 1,
        "permit_category": "SF"
      }
    },
    {
      "type": "Feature",
      "geometry": {
        "type": "Point",
        "coordinates": [
          -122.329413001209,
          38.30982599987
        ]
      },
      "properties": {
        "permit_year": 2014,
        "permit_address": "3211 ATHERTON CIR",
        "permit_units": 1,
        "permit_category": "SF"
      }
    },
    {
      "type": "Feature",
      "geometry": {
        "type": "Point",
        "coordinates": [
          -122.329532000401,
          38.3095380000787
        ]
      },
      "properties": {
        "permit_year": 2014,
        "permit_address": "3223 ATHERTON CIR",
        "permit_units": 1,
        "permit_category": "SF"
      }
    },
    {
      "type": "Feature",
      "geometry": {
        "type": "Point",
        "coordinates": [
          -122.328967000427,
          38.3087949999893
        ]
      },
      "properties": {
        "permit_year": 2014,
        "permit_address": "3228 ATHERTON CIR",
        "permit_units": 1,
        "permit_category": "SF"
      }
    },
    {
      "type": "Feature",
      "geometry": {
        "type": "Point",
        "coordinates": [
          -122.328927000381,
          38.3092229999415
        ]
      },
      "properties": {
        "permit_year": 2014,
        "permit_address": "3220 ATHERTON CIR",
        "permit_units": 1,
        "permit_category": "SF"
      }
    },
    {
      "type": "Feature",
      "geometry": {
        "type": "Point",
        "coordinates": [
          -122.328940000081,
          38.3090229997117
        ]
      },
      "properties": {
        "permit_year": 2014,
        "permit_address": "3226 ATHERTON CIR",
        "permit_units": 1,
        "permit_category": "SF"
      }
    },
    {
      "type": "Feature",
      "geometry": {
        "type": "Point",
        "coordinates": [
          -122.328880000012,
          38.3096109000231
        ]
      },
      "properties": {
        "permit_year": 2014,
        "permit_address": "3208 ATHERTON CIR",
        "permit_units": 1,
        "permit_category": "SF"
      }
    },
    {
      "type": "Feature",
      "geometry": {
        "type": "Point",
        "coordinates": [
          -122.329095000034,
          38.3101919996611
        ]
      },
      "properties": {
        "permit_year": 2014,
        "permit_address": "3301 CARMEL DR",
        "permit_units": 1,
        "permit_category": "SF"
      }
    },
    {
      "type": "Feature",
      "geometry": {
        "type": "Point",
        "coordinates": [
          -122.295262000141,
          38.3135099997867
        ]
      },
      "properties": {
        "permit_year": 2014,
        "permit_address": "2535 MAIN ST",
        "permit_units": 1,
        "permit_category": "SF"
      }
    },
    {
      "type": "Feature",
      "geometry": {
        "type": "Point",
        "coordinates": [
          -122.292625599792,
          38.3039353999988
        ]
      },
      "properties": {
        "permit_year": 2014,
        "permit_address": "1758 COLEMAN ST",
        "permit_units": 1,
        "permit_category": "SU"
      }
    },
    {
      "type": "Feature",
      "geometry": {
        "type": "Point",
        "coordinates": [
          -122.291923203193,
          38.3097205363737
        ]
      },
      "properties": {
        "permit_year": 2014,
        "permit_address": "941 K ST",
        "permit_units": 1,
        "permit_category": "SF"
      }
    },
    {
      "type": "Feature",
      "geometry": {
        "type": "Point",
        "coordinates": [
          -122.265645001316,
          38.2984660003057
        ]
      },
      "properties": {
        "permit_year": 2014,
        "permit_address": "10 PASCALE CT",
        "permit_units": 1,
        "permit_category": "SU"
      }
    },
    {
      "type": "Feature",
      "geometry": {
        "type": "Point",
        "coordinates": [
          -122.265004999681,
          38.2906630001974
        ]
      },
      "properties": {
        "permit_year": 2014,
        "permit_address": "2 AUTUMN CREEK CT",
        "permit_units": 1,
        "permit_category": "SF"
      }
    },
    {
      "type": "Feature",
      "geometry": {
        "type": "Point",
        "coordinates": [
          -122.271973428031,
          38.2907941402374
        ]
      },
      "properties": {
        "permit_year": 2014,
        "permit_address": "887 TRISTEN LN",
        "permit_units": 1,
        "permit_category": "SF"
      }
    },
    {
      "type": "Feature",
      "geometry": {
        "type": "Point",
        "coordinates": [
          -122.292640999782,
          38.3300398996217
        ]
      },
      "properties": {
        "permit_year": 2014,
        "permit_address": "1132 SERENDIPITY WAY",
        "permit_units": 1,
        "permit_category": "SF"
      }
    },
    {
      "type": "Feature",
      "geometry": {
        "type": "Point",
        "coordinates": [
          -122.272190096296,
          38.2907781889623
        ]
      },
      "properties": {
        "permit_year": 2014,
        "permit_address": "879 TRISTEN LN",
        "permit_units": 1,
        "permit_category": "SF"
      }
    },
    {
      "type": "Feature",
      "geometry": {
        "type": "Point",
        "coordinates": [
          -122.274903391378,
          38.2916321932711
        ]
      },
      "properties": {
        "permit_year": 2014,
        "permit_address": "708 SARATOGA DR",
        "permit_units": 1,
        "permit_category": "SF"
      }
    },
    {
      "type": "Feature",
      "geometry": {
        "type": "Point",
        "coordinates": [
          -122.272608790064,
          38.2907473512093
        ]
      },
      "properties": {
        "permit_year": 2014,
        "permit_address": "863 TRISTEN LN",
        "permit_units": 1,
        "permit_category": "SF"
      }
    },
    {
      "type": "Feature",
      "geometry": {
        "type": "Point",
        "coordinates": [
          -122.272395037401,
          38.2907644716032
        ]
      },
      "properties": {
        "permit_year": 2014,
        "permit_address": "871 TRISTEN LN",
        "permit_units": 1,
        "permit_category": "SF"
      }
    },
    {
      "type": "Feature",
      "geometry": {
        "type": "Point",
        "coordinates": [
          -122.324751000258,
          38.3104679997984
        ]
      },
      "properties": {
        "permit_year": 2014,
        "permit_address": "12 RIDGETOP WAY",
        "permit_units": 1,
        "permit_category": "SF"
      }
    },
    {
      "type": "Feature",
      "geometry": {
        "type": "Point",
        "coordinates": [
          -122.272223926093,
          38.2911992290612
        ]
      },
      "properties": {
        "permit_year": 2014,
        "permit_address": "878 TRISTEN LN",
        "permit_units": 1,
        "permit_category": "SF"
      }
    },
    {
      "type": "Feature",
      "geometry": {
        "type": "Point",
        "coordinates": [
          -122.294335023942,
          38.2955587646254
        ]
      },
      "properties": {
        "permit_year": 2014,
        "permit_address": "1829 THIRD ST",
        "permit_units": 1,
        "permit_category": "SF"
      }
    },
    {
      "type": "Feature",
      "geometry": {
        "type": "Point",
        "coordinates": [
          -122.272011622239,
          38.2912175113791
        ]
      },
      "properties": {
        "permit_year": 2014,
        "permit_address": "886 TRISTEN LN",
        "permit_units": 1,
        "permit_category": "SF"
      }
    },
    {
      "type": "Feature",
      "geometry": {
        "type": "Point",
        "coordinates": [
          -122.309091000249,
          38.3020110001076
        ]
      },
      "properties": {
        "permit_year": 2014,
        "permit_address": "2662 FIRST ST",
        "permit_units": 41,
        "permit_category": "5+"
      }
    },
    {
      "type": "Feature",
      "geometry": {
        "type": "Point",
        "coordinates": [
          -122.329467000102,
          38.3096780002396
        ]
      },
      "properties": {
        "permit_year": 2014,
        "permit_address": "3217 ATHERTON CIR",
        "permit_units": 1,
        "permit_category": "SF"
      }
    },
    {
      "type": "Feature",
      "geometry": {
        "type": "Point",
        "coordinates": [
          -122.329467000102,
          38.3096780002396
        ]
      },
      "properties": {
        "permit_year": 2014,
        "permit_address": "3217 ATHERTON CIR",
        "permit_units": 1,
        "permit_category": "SU"
      }
    },
    {
      "type": "Feature",
      "geometry": {
        "type": "Point",
        "coordinates": [
          -122.267588000086,
          38.2963829995758
        ]
      },
      "properties": {
        "permit_year": 2014,
        "permit_address": "1012 LITTLE ST",
        "permit_units": 1,
        "permit_category": "SF"
      }
    },
    {
      "type": "Feature",
      "geometry": {
        "type": "Point",
        "coordinates": [
          -122.267588000086,
          38.2963829995758
        ]
      },
      "properties": {
        "permit_year": 2014,
        "permit_address": "1012 LITTLE ST",
        "permit_units": 1,
        "permit_category": "SU"
      }
    },
    {
      "type": "Feature",
      "geometry": {
        "type": "Point",
        "coordinates": [
          -122.328800999966,
          38.3098269999161
        ]
      },
      "properties": {
        "permit_year": 2014,
        "permit_address": "3202 ATHERTON CIR",
        "permit_units": 1,
        "permit_category": "SF"
      }
    },
    {
      "type": "Feature",
      "geometry": {
        "type": "Point",
        "coordinates": [
          -122.328800999966,
          38.3098269999161
        ]
      },
      "properties": {
        "permit_year": 2014,
        "permit_address": "3202 ATHERTON CIR",
        "permit_units": 1,
        "permit_category": "SU"
      }
    },
    {
      "type": "Feature",
      "geometry": {
        "type": "Point",
        "coordinates": [
          -122.267593000317,
          38.2967690002892
        ]
      },
      "properties": {
        "permit_year": 2014,
        "permit_address": "1002 LITTLE ST",
        "permit_units": 1,
        "permit_category": "SF"
      }
    },
    {
      "type": "Feature",
      "geometry": {
        "type": "Point",
        "coordinates": [
          -122.267593000317,
          38.2967690002892
        ]
      },
      "properties": {
        "permit_year": 2014,
        "permit_address": "1002 LITTLE ST",
        "permit_units": 1,
        "permit_category": "SU"
      }
    },
    {
      "type": "Feature",
      "geometry": {
        "type": "Point",
        "coordinates": [
          -122.26758700004,
          38.296565999921
        ]
      },
      "properties": {
        "permit_year": 2014,
        "permit_address": "1006 LITTLE ST",
        "permit_units": 1,
        "permit_category": "SF"
      }
    },
    {
      "type": "Feature",
      "geometry": {
        "type": "Point",
        "coordinates": [
          -122.26758700004,
          38.296565999921
        ]
      },
      "properties": {
        "permit_year": 2014,
        "permit_address": "1006 LITTLE ST",
        "permit_units": 1,
        "permit_category": "SU"
      }
    },
    {
      "type": "Feature",
      "geometry": {
        "type": "Point",
        "coordinates": [
          -122.267589000132,
          38.2961969999916
        ]
      },
      "properties": {
        "permit_year": 2014,
        "permit_address": "1018 LITTLE ST",
        "permit_units": 1,
        "permit_category": "SF"
      }
    },
    {
      "type": "Feature",
      "geometry": {
        "type": "Point",
        "coordinates": [
          -122.267589000132,
          38.2961969999916
        ]
      },
      "properties": {
        "permit_year": 2014,
        "permit_address": "1018 LITTLE ST",
        "permit_units": 1,
        "permit_category": "SU"
      }
    },
    {
      "type": "Feature",
      "geometry": {
        "type": "Point",
        "coordinates": [
          -122.328901000081,
          38.3094159998486
        ]
      },
      "properties": {
        "permit_year": 2014,
        "permit_address": "3214 ATHERTON CIR",
        "permit_units": 1,
        "permit_category": "SF"
      }
    },
    {
      "type": "Feature",
      "geometry": {
        "type": "Point",
        "coordinates": [
          -122.328901000081,
          38.3094159998486
        ]
      },
      "properties": {
        "permit_year": 2014,
        "permit_address": "3214 ATHERTON CIR",
        "permit_units": 1,
        "permit_category": "SU"
      }
    },
    {
      "type": "Feature",
      "geometry": {
        "type": "Point",
        "coordinates": [
          -122.322498,
          38.339629
        ]
      },
      "properties": {
        "permit_year": 2018,
        "permit_address": "4344 Byway East",
        "permit_units": 1,
        "permit_category": "SFD"
      }
    },
    {
      "type": "Feature",
      "geometry": {
        "type": "Point",
        "coordinates": [
          -122.290388,
          38.295511
        ]
      },
      "properties": {
        "permit_year": 2018,
        "permit_address": "1608 Third",
        "permit_units": 5,
        "permit_category": "5+"
      }
    },
    {
      "type": "Feature",
      "geometry": {
        "type": "Point",
        "coordinates": [
          -122.292727,
          38.28745
        ]
      },
      "properties": {
        "permit_year": 2018,
        "permit_address": "1728 Sycamore",
        "permit_units": 1,
        "permit_category": "ADU"
      }
    },
    {
      "type": "Feature",
      "geometry": {
        "type": "Point",
        "coordinates": [
          -122.288806,
          38.28937
        ]
      },
      "properties": {
        "permit_year": 2018,
        "permit_address": "198 Franklin",
        "permit_units": 1,
        "permit_category": "ADU"
      }
    },
    {
      "type": "Feature",
      "geometry": {
        "type": "Point",
        "coordinates": [
          -122.290894,
          38.295567
        ]
      },
      "properties": {
        "permit_year": 2018,
        "permit_address": "1656 Third",
        "permit_units": 5,
        "permit_category": "5+"
      }
    },
    {
      "type": "Feature",
      "geometry": {
        "type": "Point",
        "coordinates": [
          -122.23832,
          38.442011
        ]
      },
      "properties": {
        "permit_year": 2018,
        "permit_address": "106 Heun",
        "permit_units": 1,
        "permit_category": "SFD"
      }
    },
    {
      "type": "Feature",
      "geometry": {
        "type": "Point",
        "coordinates": [
          -122.23832,
          38.442011
        ]
      },
      "properties": {
        "permit_year": 2018,
        "permit_address": "115 Heun",
        "permit_units": 1,
        "permit_category": "SFD"
      }
    },
    {
      "type": "Feature",
      "geometry": {
        "type": "Point",
        "coordinates": [
          -122.313707,
          38.29522
        ]
      },
      "properties": {
        "permit_year": 2018,
        "permit_address": "125 Riordan",
        "permit_units": 1,
        "permit_category": "SFD"
      }
    },
    {
      "type": "Feature",
      "geometry": {
        "type": "Point",
        "coordinates": [
          -122.313523,
          38.295329
        ]
      },
      "properties": {
        "permit_year": 2018,
        "permit_address": "117 Riordan",
        "permit_units": 1,
        "permit_category": "SFD"
      }
    },
    {
      "type": "Feature",
      "geometry": {
        "type": "Point",
        "coordinates": [
          -122.314169,
          38.29513
        ]
      },
      "properties": {
        "permit_year": 2018,
        "permit_address": "141 Riordan",
        "permit_units": 1,
        "permit_category": "SFD"
      }
    },
    {
      "type": "Feature",
      "geometry": {
        "type": "Point",
        "coordinates": [
          -122.23832,
          38.442011
        ]
      },
      "properties": {
        "permit_year": 2018,
        "permit_address": "122 Heun",
        "permit_units": 1,
        "permit_category": "SFD"
      }
    },
    {
      "type": "Feature",
      "geometry": {
        "type": "Point",
        "coordinates": [
          -122.263642,
          38.291693
        ]
      },
      "properties": {
        "permit_year": 2018,
        "permit_address": "1232 Andersen Rch",
        "permit_units": 1,
        "permit_category": "SFD"
      }
    },
    {
      "type": "Feature",
      "geometry": {
        "type": "Point",
        "coordinates": [
          -122.310679,
          38.311858
        ]
      },
      "properties": {
        "permit_year": 2018,
        "permit_address": "2059 Morlan",
        "permit_units": 1,
        "permit_category": "SFD"
      }
    },
    {
      "type": "Feature",
      "geometry": {
        "type": "Point",
        "coordinates": [
          -122.23832,
          38.442011
        ]
      },
      "properties": {
        "permit_year": 2018,
        "permit_address": "131 Heun",
        "permit_units": 1,
        "permit_category": "SFD"
      }
    },
    {
      "type": "Feature",
      "geometry": {
        "type": "Point",
        "coordinates": [
          -122.31129,
          38.312354
        ]
      },
      "properties": {
        "permit_year": 2018,
        "permit_address": "1131 La Pintura",
        "permit_units": 1,
        "permit_category": "SFD"
      }
    },
    {
      "type": "Feature",
      "geometry": {
        "type": "Point",
        "coordinates": [
          -122.266062,
          38.292714
        ]
      },
      "properties": {
        "permit_year": 2018,
        "permit_address": "1132 Pennyroyal",
        "permit_units": 1,
        "permit_category": "SFD"
      }
    },
    {
      "type": "Feature",
      "geometry": {
        "type": "Point",
        "coordinates": [
          -122.285696,
          38.294341
        ]
      },
      "properties": {
        "permit_year": 2018,
        "permit_address": "540 Randolph",
        "permit_units": 1,
        "permit_category": "SFD"
      }
    },
    {
      "type": "Feature",
      "geometry": {
        "type": "Point",
        "coordinates": [
          -122.265818,
          38.292671
        ]
      },
      "properties": {
        "permit_year": 2018,
        "permit_address": "1138 Pennyroyal",
        "permit_units": 1,
        "permit_category": "SFD"
      }
    },