{
  "type": "FeatureCollection",
  "features": [
    {
      "type": "Feature",
      "geometry": {
        "type": "Point",
        "coordinates": [
          -122.257410000171,
          38.1813200003178
        ]
      },
      "properties": {
        "permit_year": 2017,
        "permit_address": "1 Natalie Ln",
        "permit_units": 70,
        "permit_category": "5+"
      }
    },
    {
      "type": "Feature",
      "geometry": {
        "type": "Point",
        "coordinates": [
          -122.258529,
          38.17727
        ]
      },
      "properties": {
        "permit_year": 2016,
        "permit_address": "Unidentified",
        "permit_units": 0,
        "permit_category": "Unidentified"
      }
    },
    {
      "type": "Feature",
      "geometry": {
        "type": "Point",
        "coordinates": [
          -122.263674719812,
          38.1795961987057
        ]
      },
      "properties": {
        "permit_year": 2015,
        "permit_address": "14 Rita",
        "permit_units": 1,
        "permit_category": "SU"
      }
    },
    {
      "type": "Feature",
      "geometry": {
        "type": "Point",
        "coordinates": [
          -122.253275650351,
          38.1853562502908
        ]
      },
      "properties": {
        "permit_year": 2015,
        "permit_address": "100 Reliant Way",
        "permit_units": 20,
        "permit_category": "5+"
      }
    },
    {
      "type": "Feature",
      "geometry": {
        "type": "Point",
        "coordinates": [
          -122.25343425029,
          38.1853572593301
        ]
      },
      "properties": {
        "permit_year": 2015,
        "permit_address": "200 Reliant Way",
        "permit_units": 20,
        "permit_category": "5+"
      }
    },
    {
      "type": "Feature",
      "geometry": {
        "type": "Point",
        "coordinates": [
          -122.253592848431,
          38.1853582665708
        ]
      },
      "properties": {
        "permit_year": 2015,
        "permit_address": "300 Reliant Way",
        "permit_units": 20,
        "permit_category": "5+"
      }
    },
    {
      "type": "Feature",
      "geometry": {
        "type": "Point",
        "coordinates": [
          -122.253751448371,
          38.1853592747108
        ]
      },
      "properties": {
        "permit_year": 2015,
        "permit_address": "400 Reliant Way",
        "permit_units": 20,
        "permit_category": "5+"
      }
    },
    {
      "type": "Feature",
      "geometry": {
        "type": "Point",
        "coordinates": [
          -122.253899388646,
          38.1853685611102
        ]
      },
      "properties": {
        "permit_year": 2015,
        "permit_address": "500 Reliant Way",
        "permit_units": 20,
        "permit_category": "5+"
      }
    },
    {
      "type": "Feature",
      "geometry": {
        "type": "Point",
        "coordinates": [
          -122.254047415256,
          38.1853695009018
        ]
      },
      "properties": {
        "permit_year": 2015,
        "permit_address": "600 Reliant Way",
        "permit_units": 24,
        "permit_category": "5+"
      }
    },
    {
      "type": "Feature",
      "geometry": {
        "type": "Point",
        "coordinates": [
          -122.254195440967,
          38.1853704415927
        ]
      },
      "properties": {
        "permit_year": 2015,
        "permit_address": "700 Reliant Way",
        "permit_units": 24,
        "permit_category": "5+"
      }
    },
    {
      "type": "Feature",
      "geometry": {
        "type": "Point",
        "coordinates": [
          -122.257502967588,
          38.1672719091713
        ]
      },
      "properties": {
        "permit_year": 2014,
        "permit_address": "17 Andrew Rd, American Canyon, CA 94503",
        "permit_units": 1,
        "permit_category": "SU"
      }
    },
    {
      "type": "Feature",
      "geometry": {
        "type": "Point",
        "coordinates": [
          -122.249301,
          38.165394
        ]
      },
      "properties": {
        "permit_year": 2018,
        "permit_address": "111 American Canyon Rd",
        "permit_units": 159,
        "permit_category": "5+"
      }
    },
    {
      "type": "Feature",
      "geometry": {
        "type": "Point",
        "coordinates": [
          -122.25678,
          38.180272
        ]
      },
      "properties": {
        "permit_year": 2018,
        "permit_address": "116 Los Altos Pl",
        "permit_units": 1,
        "permit_category": "ADU"
      }
    },
    {
      "type": "Feature",
      "geometry": {
        "type": "Point",
        "coordinates": [
          -122.256724,
          38.156693
        ]
      },
      "properties": {
        "permit_year": 2018,
        "permit_address": "22 Stetson Wy",
        "permit_units": 1,
        "permit_category": "ADU"
      }
    },
    {
      "type": "Feature",
      "geometry": {
        "type": "Point",
        "coordinates": [
          -122.259306,
          38.172917
        ]
      },
      "properties": {
        "permit_year": 2018,
        "permit_address": "248 Andrew Rd",
        "permit_units": 1,
        "permit_category": "ADU"
      }
    },
    {
      "type": "Feature",
      "geometry": {
        "type": "Point",
        "coordinates": [
          -122.257617,
          38.179651
        ]
      },
      "properties": {
        "permit_year": 2019,
        "permit_address": "131 Los Altos PL",
        "permit_units": 1,
        "permit_category": "ADU"
      }
    }
  ]
}