{"type": "FeatureCollection", "features": [{"type": "Feature", "geometry": {"type": "Point", "coordinates": [-122.283623553384, 37.5265688616637]}, "properties": {"permit_year": 2017, "permit_address": "400 El Camino Real", "permit_units": 73.0, "permit_category": "5+"}}, {"type": "Feature", "geometry": {"type": "Point", "coordinates": [-122.279990000038, 37.5235300003093]}, "properties": {"permit_year": 2017, "permit_address": "600 El Camino Real", "permit_units": 32.0, "permit_category": "5+"}}, {"type": "Feature", "geometry": {"type": "Point", "coordinates": [-122.29946411028, 37.5142225711148]}, "properties": {"permit_year": 2017, "permit_address": "2128 Pullman Avenue", "permit_units": 1.0, "permit_category": "SF"}}, {"type": "Feature", "geometry": {"type": "Point", "coordinates": [-122.309406118198, 37.5151977833511]}, "properties": {"permit_year": 2017, "permit_address": "2607 Monte Cresta Drive", "permit_units": 1.0, "permit_category": "SF"}}, {"type": "Feature", "geometry": {"type": "Point", "coordinates": [-122.309071468773, 37.514807111559]}, "properties": {"permit_year": 2017, "permit_address": "2902 San Juan Boulevard (Lot 24)", "permit_units": 1.0, "permit_category": "SF"}}, {"type": "Feature", "geometry": {"type": "Point", "coordinates": [-122.274074718274, 37.5257175283413]}, "properties": {"permit_year": 2017, "permit_address": "802 Hiller Street", "permit_units": 1.0, "permit_category": "SU"}}, {"type": "Feature", "geometry": {"type": "Point", "coordinates": [-122.303659176929, 37.5205778012246]}, "properties": {"permit_year": 2017, "permit_address": "2227 Thurm Avenue", "permit_units": 1.0, "permit_category": "SU"}}, {"type": "Feature", "geometry": {"type": "Point", "coordinates": [-122.298731688017, 37.5235806654154]}, "properties": {"permit_year": 2017, "permit_address": "2025 Monroe Avenue", "permit_units": 1.0, "permit_category": "SU"}}, {"type": "Feature", "geometry": {"type": "Point", "coordinates": [-122.295430773212, 37.5243876702548]}, "properties": {"permit_year": 2017, "permit_address": "1807 Bayview Avenue", "permit_units": 1.0, "permit_category": "SU"}}, {"type": "Feature", "geometry": {"type": "Point", "coordinates": [-122.295843994605, 37.5180333331718]}, "properties": {"permit_year": 2017, "permit_address": "713 Alameda de las Pulgas", "permit_units": 1.0, "permit_category": "SF"}}, {"type": "Feature", "geometry": {"type": "Point", "coordinates": [-122.296612191, 38.279583434428]}, "properties": {"permit_year": 2016, "permit_address": "2940 Alhambra Drive", "permit_units": 1.0, "permit_category": "SF"}}, {"type": "Feature", "geometry": {"type": "Point", "coordinates": [-122.308372759395, 37.513911501015]}, "properties": {"permit_year": 2016, "permit_address": "2847 San Juan Boulevard", "permit_units": 1.0, "permit_category": "SF"}}, {"type": "Feature", "geometry": {"type": "Point", "coordinates": [-122.2936752669, 37.5156560787651]}, "properties": {"permit_year": 2015, "permit_address": "1901 ALDEN ST, Belmont, CA 94002", "permit_units": 1.0, "permit_category": "SF"}}, {"type": "Feature", "geometry": {"type": "Point", "coordinates": [-122.296628625211, 37.5243217733312]}, "properties": {"permit_year": 2015, "permit_address": "1804 MILLER AVE, Belmont, CA 94002", "permit_units": 1.0, "permit_category": "SF"}}, {"type": "Feature", "geometry": {"type": "Point", "coordinates": [-122.296516215351, 37.5241756299014]}, "properties": {"permit_year": 2015, "permit_address": "1806 MILLER AVE, Belmont, CA 94002", "permit_units": 1.0, "permit_category": "SF"}}, {"type": "Feature", "geometry": {"type": "Point", "coordinates": [-122.304366579154, 37.5219597858155]}, "properties": {"permit_year": 2015, "permit_address": "2204 THURM AVE, Belmont, CA 94002", "permit_units": 1.0, "permit_category": "SF"}}, {"type": "Feature", "geometry": {"type": "Point", "coordinates": [-122.292694083165, 37.522839027799]}, "properties": {"permit_year": 2015, "permit_address": "1717 NOTRE DAME AVE, Belmont, CA 94002", "permit_units": 1.0, "permit_category": "SF"}}, {"type": "Feature", "geometry": {"type": "Point", "coordinates": [-122.298553516132, 37.5203315263789]}, "properties": {"permit_year": 2015, "permit_address": "2113 CORONET BLVD, Belmont, CA 94002", "permit_units": 1.0, "permit_category": "SF"}}, {"type": "Feature", "geometry": {"type": "Point", "coordinates": [-122.291353952123, 37.5208075150549]}, "properties": {"permit_year": 2015, "permit_address": "1710 VALLEY VIEW, Belmont, CA 94002", "permit_units": 1.0, "permit_category": "SF"}}, {"type": "Feature", "geometry": {"type": "Point", "coordinates": [-122.304852699592, 37.5195651996743]}, "properties": {"permit_year": 2014, "permit_address": "2713 NEWLANDS AVE", "permit_units": 1.0, "permit_category": "SU"}}, {"type": "Feature", "geometry": {"type": "Point", "coordinates": [-122.303823857185, 37.5178562098962]}, "properties": {"permit_year": 2014, "permit_address": "2311 CIPRIANI BLVD", "permit_units": 1.0, "permit_category": "SF"}}, {"type": "Feature", "geometry": {"type": "Point", "coordinates": [-122.295239174448, 37.5089307677408]}, "properties": {"permit_year": 2014, "permit_address": "2177 CARLMONT DR", "permit_units": 10.0, "permit_category": "5+"}}, {"type": "Feature", "geometry": {"type": "Point", "coordinates": [-122.278807082181, 37.5196047527572]}, "properties": {"permit_year": 2014, "permit_address": "905 SOUTH RD", "permit_units": 1.0, "permit_category": "SF"}}, {"type": "Feature", "geometry": {"type": "Point", "coordinates": [-122.309439400308, 37.5154741000497]}, "properties": {"permit_year": 2014, "permit_address": "2609 Monte Cresta", "permit_units": 1.0, "permit_category": "SF"}}, {"type": "Feature", "geometry": {"type": "Point", "coordinates": [-122.309317499903, 37.5155689002846]}, "properties": {"permit_year": 2014, "permit_address": "2611 Monte Crest", "permit_units": 1.0, "permit_category": "SF"}}, {"type": "Feature", "geometry": {"type": "Point", "coordinates": [-122.298538000129, 37.5203979997679]}, "properties": {"permit_year": 2014, "permit_address": "2111 CORONET BLVD", "permit_units": 1.0, "permit_category": "SF"}}, {"type": "Feature", "geometry": {"type": "Point", "coordinates": [-122.287796, 37.524514]}, "properties": {"permit_year": 2018, "permit_address": "1524 Winding Way", "permit_units": 1.0, "permit_category": "ADU"}}, {"type": "Feature", "geometry": {"type": "Point", "coordinates": [-122.29339, 37.516644]}, "properties": {"permit_year": 2018, "permit_address": "2528 Dekoven", "permit_units": 1.0, "permit_category": "ADU"}}, {"type": "Feature", "geometry": {"type": "Point", "coordinates": [-122.294992, 37.523678]}, "properties": {"permit_year": 2018, "permit_address": "1907 Lyon Avenue", "permit_units": 1.0, "permit_category": "ADU"}}, {"type": "Feature", "geometry": {"type": "Point", "coordinates": [-122.291898, 37.526414]}, "properties": {"permit_year": 2018, "permit_address": "1136 North Court", "permit_units": 1.0, "permit_category": "ADU"}}, {"type": "Feature", "geometry": {"type": "Point", "coordinates": [-122.272511, 37.513865]}, "properties": {"permit_year": 2018, "permit_address": "1565 Molitor Road", "permit_units": 1.0, "permit_category": "ADU"}}, {"type": "Feature", "geometry": {"type": "Point", "coordinates": [-122.297041, 37.515996]}, "properties": {"permit_year": 2018, "permit_address": "2121 Arthur Avenue", "permit_units": 1.0, "permit_category": "SFD"}}, {"type": "Feature", "geometry": {"type": "Point", "coordinates": [-122.323715, 37.519039]}, "properties": {"permit_year": 2018, "permit_address": "1961 Bishop Road", "permit_units": 1.0, "permit_category": "SFD"}}, {"type": "Feature", "geometry": {"type": "Point", "coordinates": [-122.316114, 37.510384]}, "properties": {"permit_year": 2018, "permit_address": "1105 Tahoe Drive", "permit_units": 1.0, "permit_category": "SFD"}}, {"type": "Feature", "geometry": {"type": "Point", "coordinates": [-122.279002, 37.518322]}, "properties": {"permit_year": 2018, "permit_address": "925 Holly Road", "permit_units": 1.0, "permit_category": "ADU"}}, {"type": "Feature", "geometry": {"type": "Point", "coordinates": [-122.277664, 37.514936]}, "properties": {"permit_year": 2018, "permit_address": "Talbryn Lot 4 ", "permit_units": 1.0, "permit_category": "SFD"}}, {"type": "Feature", "geometry": {"type": "Point", "coordinates": [-122.277664, 37.514936]}, "properties": {"permit_year": 2018, "permit_address": "Talbryn Lot 2", "permit_units": 1.0, "permit_category": "SFD"}}, {"type": "Feature", "geometry": {"type": "Point", "coordinates": [-122.277664, 37.514936]}, "properties": {"permit_year": 2018, "permit_address": "Talbryn Lot 3", "permit_units": 1.0, "permit_category": "SFD"}}, {"type": "Feature", "geometry": {"type": "Point", "coordinates": [-122.287198, 37.511085]}, "properties": {"permit_year": 2018, "permit_address": "1704 Fernwood Way", "permit_units": 1.0, "permit_category": "ADU"}}, {"type": "Feature", "geometry": {"type": "Point", "coordinates": [-122.271015, 37.521812]}, "properties": {"permit_year": 2018, "permit_address": "1220 Hiller Street", "permit_units": 1.0, "permit_category": "ADU"}}, {"type": "Feature", "geometry": {"type": "Point", "coordinates": [-122.328411, 37.513434]}, "properties": {"permit_year": 2018, "permit_address": "3225 Adelaide Way", "permit_units": 1.0, "permit_category": "ADU"}}, {"type": "Feature", "geometry": {"type": "Point", "coordinates": [-122.280097, 37.52795]}, "properties": {"permit_year": 2019, "permit_address": "411 HILLER ST", "permit_units": 1.0, "permit_category": "ADU"}}, {"type": "Feature", "geometry": {"type": "Point", "coordinates": [-122.300195, 37.523957]}, "properties": {"permit_year": 2019, "permit_address": "1940 BAYVIEW AVE", "permit_units": 1.0, "permit_category": "ADU"}}, {"type": "Feature", "geometry": {"type": "Point", "coordinates": [-122.288244, 37.510754]}, "properties": {"permit_year": 2019, "permit_address": "1724 FERNWOOD WAY", "permit_units": 1.0, "permit_category": "ADU"}}, {"type": "Feature", "geometry": {"type": "Point", "coordinates": [-122.27055, 37.522001]}, "properties": {"permit_year": 2019, "permit_address": "1241 HILLER ST", "permit_units": 1.0, "permit_category": "ADU"}}, {"type": "Feature", "geometry": {"type": "Point", "coordinates": [-122.298019, 37.523277]}, "properties": {"permit_year": 2019, "permit_address": "2013 LYON AVE", "permit_units": 1.0, "permit_category": "ADU"}}, {"type": "Feature", "geometry": {"type": "Point", "coordinates": [-122.275764, 37.528312]}, "properties": {"permit_year": 2019, "permit_address": "196 OXFORD WAY", "permit_units": 1.0, "permit_category": "ADU"}}, {"type": "Feature", "geometry": {"type": "Point", "coordinates": [-122.289364, 37.518265]}, "properties": {"permit_year": 2019, "permit_address": "1300 NOTRE DAME AVE", "permit_units": 1.0, "permit_category": "ADU"}}, {"type": "Feature", "geometry": {"type": "Point", "coordinates": [-122.299375, 37.521793]}, "properties": {"permit_year": 2019, "permit_address": "406 ALAMEDA", "permit_units": 1.0, "permit_category": "ADU"}}, {"type": "Feature", "geometry": {"type": "Point", "coordinates": [-122.271371, 37.522602]}, "properties": {"permit_year": 2019, "permit_address": "1121 HILLER ST", "permit_units": 1.0, "permit_category": "ADU"}}, {"type": "Feature", "geometry": {"type": "Point", "coordinates": [-122.286706, 37.520165]}, "properties": {"permit_year": 2019, "permit_address": "50 NOTRE DAME PL", "permit_units": 1.0, "permit_category": "ADU"}}, {"type": "Feature", "geometry": {"type": "Point", "coordinates": [-122.315593, 37.516084]}, "properties": {"permit_year": 2019, "permit_address": "3406 BERESFORD AVE", "permit_units": 1.0, "permit_category": "ADU"}}, {"type": "Feature", "geometry": {"type": "Point", "coordinates": [-122.293689, 37.524405]}, "properties": {"permit_year": 2019, "permit_address": "1827 MEZES AVE", "permit_units": 1.0, "permit_category": "ADU"}}]}