{"type": "FeatureCollection", "features": [{"type": "Feature", "geometry": {"type": "Point", "coordinates": [-122.221924053552, 37.3760057316792]}, "properties": {"permit_year": 2017, "permit_address": "145 Stonegate Road", "permit_units": 1, "permit_category": "SU"}}, {"type": "Feature", "geometry": {"type": "Point", "coordinates": [-122.205501530971, 37.3814043610225]}, "properties": {"permit_year": 2017, "permit_address": "50 Adair Lane", "permit_units": 1, "permit_category": "SU"}}, {"type": "Feature", "geometry": {"type": "Point", "coordinates": [-122.228837038698, 37.3901375101381]}, "properties": {"permit_year": 2017, "permit_address": "199 Mapache Drive", "permit_units": 1, "permit_category": "SU"}}, {"type": "Feature", "geometry": {"type": "Point", "coordinates": [-122.216380967008, 37.371770764809]}, "properties": {"permit_year": 2017, "permit_address": "178 Corte Madera Road", "permit_units": 1, "permit_category": "SU"}}, {"type": "Feature", "geometry": {"type": "Point", "coordinates": [-122.192817097131, 37.3971447379394]}, "properties": {"permit_year": 2017, "permit_address": "333 Alpine Road", "permit_units": 1, "permit_category": "SU"}}, {"type": "Feature", "geometry": {"type": "Point", "coordinates": [-122.223063383069, 37.3944348521867]}, "properties": {"permit_year": 2017, "permit_address": "148 Ramoso Road", "permit_units": 1, "permit_category": "SU"}}, {"type": "Feature", "geometry": {"type": "Point", "coordinates": [-122.203722161149, 37.3937795971507]}, "properties": {"permit_year": 2017, "permit_address": "480 Westridge Drive", "permit_units": 1, "permit_category": "SU"}}, {"type": "Feature", "geometry": {"type": "Point", "coordinates": [-122.200774811209, 37.3734102064159]}, "properties": {"permit_year": 2017, "permit_address": "40 Meadow Court", "permit_units": 1, "permit_category": "SF"}}, {"type": "Feature", "geometry": {"type": "Point", "coordinates": [-122.200724531012, 37.3733893583322]}, "properties": {"permit_year": 2017, "permit_address": "20 Meadow Court", "permit_units": 1, "permit_category": "SF"}}, {"type": "Feature", "geometry": {"type": "Point", "coordinates": [-122.216358137718, 37.3798687884139]}, "properties": {"permit_year": 2017, "permit_address": "50 Iroquois Trail", "permit_units": 1, "permit_category": "SU"}}, {"type": "Feature", "geometry": {"type": "Point", "coordinates": [-122.194000770419, 37.3920499724283]}, "properties": {"permit_year": 2017, "permit_address": "228 Westridge Drive", "permit_units": 1, "permit_category": "SU"}}, {"type": "Feature", "geometry": {"type": "Point", "coordinates": [-122.20113485389, 37.353231997159]}, "properties": {"permit_year": 2017, "permit_address": "5 Blue Oaks Court", "permit_units": 1, "permit_category": "SF"}}, {"type": "Feature", "geometry": {"type": "Point", "coordinates": [-122.220190773985, 37.3824953942471]}, "properties": {"permit_year": 2017, "permit_address": "135 Shawnee Road", "permit_units": 1, "permit_category": "SU"}}, {"type": "Feature", "geometry": {"type": "Point", "coordinates": [-122.210017946971, 37.3459363001202]}, "properties": {"permit_year": 2017, "permit_address": "5905 Alpine Road", "permit_units": 1, "permit_category": "SF"}}, {"type": "Feature", "geometry": {"type": "Point", "coordinates": [-122.200239870174, 37.3908329972451]}, "properties": {"permit_year": 2017, "permit_address": "357 Westridge Drive", "permit_units": 1, "permit_category": "SU"}}, {"type": "Feature", "geometry": {"type": "Point", "coordinates": [-122.212965566708, 37.3806325718357]}, "properties": {"permit_year": 2016, "permit_address": "10 Cherokee", "permit_units": 1, "permit_category": "SF"}}, {"type": "Feature", "geometry": {"type": "Point", "coordinates": [-122.21828293421, 37.3882407643998]}, "properties": {"permit_year": 2016, "permit_address": "185 Meadowood", "permit_units": 1, "permit_category": "SF"}}, {"type": "Feature", "geometry": {"type": "Point", "coordinates": [-122.225358941262, 37.393122857334]}, "properties": {"permit_year": 2016, "permit_address": "290 Mapache", "permit_units": 1, "permit_category": "SU"}}, {"type": "Feature", "geometry": {"type": "Point", "coordinates": [-122.190877399772, 37.385957900137]}, "properties": {"permit_year": 2016, "permit_address": "3639 Alpine", "permit_units": 6, "permit_category": "SU"}}, {"type": "Feature", "geometry": {"type": "Point", "coordinates": [-122.234169871842, 37.3542404447408]}, "properties": {"permit_year": 2016, "permit_address": "5070 Alpine", "permit_units": 1, "permit_category": "SU"}}, {"type": "Feature", "geometry": {"type": "Point", "coordinates": [-122.205178549351, 37.3745858721404]}, "properties": {"permit_year": 2016, "permit_address": "120 Nathhorst", "permit_units": 1, "permit_category": "SU"}}, {"type": "Feature", "geometry": {"type": "Point", "coordinates": [-122.23727895496, 37.3565087570735]}, "properties": {"permit_year": 2016, "permit_address": "5050 Alpine", "permit_units": 1, "permit_category": "SU"}}, {"type": "Feature", "geometry": {"type": "Point", "coordinates": [-122.212965566708, 37.3806325718357]}, "properties": {"permit_year": 2016, "permit_address": "10 Cherokee", "permit_units": 1, "permit_category": "SU"}}, {"type": "Feature", "geometry": {"type": "Point", "coordinates": [-122.21828293421, 37.3882407643998]}, "properties": {"permit_year": 2016, "permit_address": "185 Meadowood", "permit_units": 1, "permit_category": "SU"}}, {"type": "Feature", "geometry": {"type": "Point", "coordinates": [-122.216708220408, 37.3843799820506]}, "properties": {"permit_year": 2016, "permit_address": "410 Cervantes", "permit_units": 1, "permit_category": "SU"}}, {"type": "Feature", "geometry": {"type": "Point", "coordinates": [-122.224954231053, 37.3881742298569]}, "properties": {"permit_year": 2016, "permit_address": "20 Naranja", "permit_units": 1, "permit_category": "SF"}}, {"type": "Feature", "geometry": {"type": "Point", "coordinates": [-122.215389753135, 37.3972010013252]}, "properties": {"permit_year": 2016, "permit_address": "177 Goya", "permit_units": 1, "permit_category": "SF"}}, {"type": "Feature", "geometry": {"type": "Point", "coordinates": [-122.195528867863, 37.3850689014087]}, "properties": {"permit_year": 2016, "permit_address": "20 Minoca", "permit_units": 1, "permit_category": "SF"}}, {"type": "Feature", "geometry": {"type": "Point", "coordinates": [-122.205708766247, 37.3585776546351]}, "properties": {"permit_year": 2016, "permit_address": "17 Redberry", "permit_units": 1, "permit_category": "SF"}}, {"type": "Feature", "geometry": {"type": "Point", "coordinates": [-122.19856966276, 37.3933673254418]}, "properties": {"permit_year": 2016, "permit_address": "127 Ash", "permit_units": 1, "permit_category": "SF"}}, {"type": "Feature", "geometry": {"type": "Point", "coordinates": [-122.205823531431, 37.3593908207299]}, "properties": {"permit_year": 2015, "permit_address": "18 Redberry Ridge", "permit_units": 1, "permit_category": "SF"}}, {"type": "Feature", "geometry": {"type": "Point", "coordinates": [-122.209994191379, 37.3778414476247]}, "properties": {"permit_year": 2015, "permit_address": "40 Antonio", "permit_units": 1, "permit_category": "SF"}}, {"type": "Feature", "geometry": {"type": "Point", "coordinates": [-122.194206751141, 37.3961028787449]}, "properties": {"permit_year": 2015, "permit_address": "250 Alamos Dr", "permit_units": 1, "permit_category": "SF"}}, {"type": "Feature", "geometry": {"type": "Point", "coordinates": [-122.22004283281, 37.3871859288876]}, "properties": {"permit_year": 2015, "permit_address": "1155 Westridge Dr", "permit_units": 1, "permit_category": "SF"}}, {"type": "Feature", "geometry": {"type": "Point", "coordinates": [-122.196886817173, 37.3863952422467]}, "properties": {"permit_year": 2015, "permit_address": "40 Minoca Rd", "permit_units": 1, "permit_category": "SF"}}, {"type": "Feature", "geometry": {"type": "Point", "coordinates": [-122.207436168744, 37.3964570902226]}, "properties": {"permit_year": 2015, "permit_address": "128 Escobar Rd", "permit_units": 1, "permit_category": "SF"}}, {"type": "Feature", "geometry": {"type": "Point", "coordinates": [-122.203723134215, 37.3552627113052]}, "properties": {"permit_year": 2015, "permit_address": "3 Buck Meadow Dr", "permit_units": 1, "permit_category": "SF"}}, {"type": "Feature", "geometry": {"type": "Point", "coordinates": [-122.20575481873, 37.359390360277]}, "properties": {"permit_year": 2015, "permit_address": "18 Redberry Ridge", "permit_units": 1, "permit_category": "SU"}}, {"type": "Feature", "geometry": {"type": "Point", "coordinates": [-122.209912014928, 37.3778408990383]}, "properties": {"permit_year": 2015, "permit_address": "40 Antonio", "permit_units": 1, "permit_category": "SU"}}, {"type": "Feature", "geometry": {"type": "Point", "coordinates": [-122.207377883682, 37.3964566990175]}, "properties": {"permit_year": 2015, "permit_address": "128 Escobar Rd", "permit_units": 1, "permit_category": "SU"}}, {"type": "Feature", "geometry": {"type": "Point", "coordinates": [-122.203660374127, 37.3552646727265]}, "properties": {"permit_year": 2015, "permit_address": "3 Buck Meadow Dr", "permit_units": 1, "permit_category": "SU"}}, {"type": "Feature", "geometry": {"type": "Point", "coordinates": [-122.219061809155, 37.3818884795697]}, "properties": {"permit_year": 2015, "permit_address": "185 Shawnee Pass", "permit_units": 1, "permit_category": "SU"}}, {"type": "Feature", "geometry": {"type": "Point", "coordinates": [-122.202621, 37.366126]}, "properties": {"permit_year": 2018, "permit_address": "7 BAYBERRY ST", "permit_units": 1, "permit_category": "SFD"}}, {"type": "Feature", "geometry": {"type": "Point", "coordinates": [-122.213737, 37.398873]}, "properties": {"permit_year": 2018, "permit_address": "200 GOYA RD", "permit_units": 1, "permit_category": "ADU"}}, {"type": "Feature", "geometry": {"type": "Point", "coordinates": [-122.200553, 37.387388]}, "properties": {"permit_year": 2018, "permit_address": "345 GOLDEN OAK DR", "permit_units": 1, "permit_category": "ADU"}}, {"type": "Feature", "geometry": {"type": "Point", "coordinates": [-122.194012, 37.390731]}, "properties": {"permit_year": 2018, "permit_address": "207 WESTRIDGE DR", "permit_units": 1, "permit_category": "ADU"}}, {"type": "Feature", "geometry": {"type": "Point", "coordinates": [-122.203241, 37.392102]}, "properties": {"permit_year": 2018, "permit_address": "479 WESTRIDGE DR", "permit_units": 1, "permit_category": "ADU"}}, {"type": "Feature", "geometry": {"type": "Point", "coordinates": [-122.199908, 37.393408]}, "properties": {"permit_year": 2018, "permit_address": "138 BOLIVAR LN", "permit_units": 1, "permit_category": "ADU"}}, {"type": "Feature", "geometry": {"type": "Point", "coordinates": [-122.193959, 37.392061]}, "properties": {"permit_year": 2018, "permit_address": "228 WESTRIDGE DR", "permit_units": 1, "permit_category": "ADU"}}, {"type": "Feature", "geometry": {"type": "Point", "coordinates": [-122.216069, 37.377157]}, "properties": {"permit_year": 2018, "permit_address": "195 GEORGIA LN", "permit_units": 1, "permit_category": "ADU"}}, {"type": "Feature", "geometry": {"type": "Point", "coordinates": [-122.210594, 37.395074]}, "properties": {"permit_year": 2019, "permit_address": "727 Westridge Dr", "permit_units": 1, "permit_category": "ADU"}}, {"type": "Feature", "geometry": {"type": "Point", "coordinates": [-122.213763, 37.385511]}, "properties": {"permit_year": 2019, "permit_address": "40 Sioux Wy", "permit_units": 1, "permit_category": "ADU"}}, {"type": "Feature", "geometry": {"type": "Point", "coordinates": [-122.20038, 37.375077]}, "properties": {"permit_year": 2019, "permit_address": "40 Firethorn Wy", "permit_units": 1, "permit_category": "ADU"}}, {"type": "Feature", "geometry": {"type": "Point", "coordinates": [-122.206774, 37.353912]}, "properties": {"permit_year": 2019, "permit_address": "3 Buck Meadow Dr", "permit_units": 1, "permit_category": "ADU"}}, {"type": "Feature", "geometry": {"type": "Point", "coordinates": [-122.206198, 37.377112]}, "properties": {"permit_year": 2019, "permit_address": "67 Hillbrook Dr", "permit_units": 1, "permit_category": "ADU"}}, {"type": "Feature", "geometry": {"type": "Point", "coordinates": [-122.205509, 37.38835]}, "properties": {"permit_year": 2019, "permit_address": "175 Fawn Ln", "permit_units": 1, "permit_category": "ADU"}}, {"type": "Feature", "geometry": {"type": "Point", "coordinates": [-122.209723, 37.384528]}, "properties": {"permit_year": 2019, "permit_address": "25 Kiowa Ct", "permit_units": 1, "permit_category": "ADU"}}, {"type": "Feature", "geometry": {"type": "Point", "coordinates": [-122.232969, 37.383364]}, "properties": {"permit_year": 2019, "permit_address": "848 Portola Rd", "permit_units": 1, "permit_category": "SFD"}}, {"type": "Feature", "geometry": {"type": "Point", "coordinates": [-122.231165, 37.383537]}, "properties": {"permit_year": 2019, "permit_address": "850 Portola Rd", "permit_units": 1, "permit_category": "SFD"}}, {"type": "Feature", "geometry": {"type": "Point", "coordinates": [-122.20298, 37.368356]}, "properties": {"permit_year": 2019, "permit_address": "29 Valley Oak St", "permit_units": 1, "permit_category": "SFD"}}]}