{"type": "FeatureCollection", "features": [{"type": "Feature", "geometry": {"type": "Point", "coordinates": [-123.016029999585, 38.7785400004207]}, "properties": {"permit_year": 2017, "permit_address": "102 Polaris Ct", "permit_units": 1.0, "permit_category": "SF"}}, {"type": "Feature", "geometry": {"type": "Point", "coordinates": [-123.018310000406, 38.7933400003408]}, "properties": {"permit_year": 2017, "permit_address": "693-699 S. Cloverdale Blvd", "permit_units": 21.0, "permit_category": "5+"}}, {"type": "Feature", "geometry": {"type": "Point", "coordinates": [-123.016479999652, 38.7968199998432]}, "properties": {"permit_year": 2017, "permit_address": "114 Caldwell St", "permit_units": 1.0, "permit_category": "SU"}}, {"type": "Feature", "geometry": {"type": "Point", "coordinates": [-123.0201299998, 38.8089499998427]}, "properties": {"permit_year": 2017, "permit_address": "405 N. Cloverdale Blvd", "permit_units": 1.0, "permit_category": "SU"}}, {"type": "Feature", "geometry": {"type": "Point", "coordinates": [-123.014910000096, 38.806440000106]}, "properties": {"permit_year": 2017, "permit_address": "108 N. East St", "permit_units": 1.0, "permit_category": "SU"}}, {"type": "Feature", "geometry": {"type": "Point", "coordinates": [-121.959196682981, 37.9546453480045]}, "properties": {"permit_year": 2016, "permit_address": "106 Polaris Ct", "permit_units": 1.0, "permit_category": "SF"}}, {"type": "Feature", "geometry": {"type": "Point", "coordinates": [-123.01584634813, 38.8112532067701]}, "properties": {"permit_year": 2016, "permit_address": "210 Vista View Dr", "permit_units": 1.0, "permit_category": "SF"}}, {"type": "Feature", "geometry": {"type": "Point", "coordinates": [-121.958949305566, 37.954970726318]}, "properties": {"permit_year": 2016, "permit_address": "103 Orion Ct", "permit_units": 1.0, "permit_category": "SF"}}, {"type": "Feature", "geometry": {"type": "Point", "coordinates": [-123.0242196722, 38.7936293886854]}, "properties": {"permit_year": 2016, "permit_address": "306 Cherry Creek Ct", "permit_units": 1.0, "permit_category": "SF"}}, {"type": "Feature", "geometry": {"type": "Point", "coordinates": [-123.024499504349, 38.7936125057126]}, "properties": {"permit_year": 2016, "permit_address": "308 Cherry Creek Ct", "permit_units": 1.0, "permit_category": "SF"}}, {"type": "Feature", "geometry": {"type": "Point", "coordinates": [-123.024770574402, 38.7935962037019]}, "properties": {"permit_year": 2016, "permit_address": "310 Cherry Creek Ct", "permit_units": 1.0, "permit_category": "SF"}}, {"type": "Feature", "geometry": {"type": "Point", "coordinates": [-123.025032948911, 38.7935804116067]}, "properties": {"permit_year": 2016, "permit_address": "312 Cherry Creek Ct", "permit_units": 1.0, "permit_category": "SF"}}, {"type": "Feature", "geometry": {"type": "Point", "coordinates": [-123.025296204756, 38.7935733177545]}, "properties": {"permit_year": 2016, "permit_address": "314 Cherry Creek Ct", "permit_units": 1.0, "permit_category": "SF"}}, {"type": "Feature", "geometry": {"type": "Point", "coordinates": [-123.025641640649, 38.7936683248334]}, "properties": {"permit_year": 2016, "permit_address": "316 Cherry Creek Ct", "permit_units": 1.0, "permit_category": "SF"}}, {"type": "Feature", "geometry": {"type": "Point", "coordinates": [-123.026109627158, 38.7936202147012]}, "properties": {"permit_year": 2016, "permit_address": "318 Cherry Creek Ct", "permit_units": 1.0, "permit_category": "SF"}}, {"type": "Feature", "geometry": {"type": "Point", "coordinates": [-123.01941391462, 38.7997327186901]}, "properties": {"permit_year": 2016, "permit_address": "410 S. Franklin St", "permit_units": 1.0, "permit_category": "2 to 4"}}, {"type": "Feature", "geometry": {"type": "Point", "coordinates": [-121.958589972449, 37.9546854289894]}, "properties": {"permit_year": 2016, "permit_address": "104 Orion Ct", "permit_units": 1.0, "permit_category": "SF"}}, {"type": "Feature", "geometry": {"type": "Point", "coordinates": [-121.959045197578, 37.9549060506737]}, "properties": {"permit_year": 2016, "permit_address": "101 Orion Ct", "permit_units": 1.0, "permit_category": "SF"}}, {"type": "Feature", "geometry": {"type": "Point", "coordinates": [-121.959097776441, 37.9548172731987]}, "properties": {"permit_year": 2016, "permit_address": "100 Polaris  Ct", "permit_units": 1.0, "permit_category": "SF"}}, {"type": "Feature", "geometry": {"type": "Point", "coordinates": [-123.016272999999, 38.7783709998218]}, "properties": {"permit_year": 2016, "permit_address": "106 Polaris Ct", "permit_units": 1.0, "permit_category": "SU"}}, {"type": "Feature", "geometry": {"type": "Point", "coordinates": [-123.017906110379, 38.8009924062746]}, "properties": {"permit_year": 2015, "permit_address": "100 Healdsburg Avenue", "permit_units": 32.0, "permit_category": "5+"}}, {"type": "Feature", "geometry": {"type": "Point", "coordinates": [-123.018585, 38.796481]}, "properties": {"permit_year": 2018, "permit_address": "540 S. Cloverdale Blvd.", "permit_units": 1.0, "permit_category": "ADU"}}, {"type": "Feature", "geometry": {"type": "Point", "coordinates": [-123.01424, 38.803481]}, "properties": {"permit_year": 2018, "permit_address": "154 Railroad Ave.", "permit_units": 6.0, "permit_category": "5+"}}, {"type": "Feature", "geometry": {"type": "Point", "coordinates": [-123.020852, 38.801268]}, "properties": {"permit_year": 2018, "permit_address": "405 Muscat Dr.", "permit_units": 1.0, "permit_category": "ADU"}}, {"type": "Feature", "geometry": {"type": "Point", "coordinates": [-123.018812, 38.809189]}, "properties": {"permit_year": 2018, "permit_address": "124 E. Fourth St.", "permit_units": 1.0, "permit_category": "ADU"}}, {"type": "Feature", "geometry": {"type": "Point", "coordinates": [-123.019699, 38.808717]}, "properties": {"permit_year": 2018, "permit_address": "405 N. Cloverdale Blvd. #B", "permit_units": 1.0, "permit_category": "ADU"}}, {"type": "Feature", "geometry": {"type": "Point", "coordinates": [-123.025549, 38.792769]}, "properties": {"permit_year": 2018, "permit_address": "199 Vine Dr.", "permit_units": 1.0, "permit_category": "ADU"}}, {"type": "Feature", "geometry": {"type": "Point", "coordinates": [-123.02152, 38.81116]}, "properties": {"permit_year": 2018, "permit_address": "531 N. Cloverdale Blvd.", "permit_units": 1.0, "permit_category": "SFD"}}, {"type": "Feature", "geometry": {"type": "Point", "coordinates": [-123.02156, 38.811229]}, "properties": {"permit_year": 2018, "permit_address": "535 N. Cloverdale Blvd.", "permit_units": 1.0, "permit_category": "SFD"}}, {"type": "Feature", "geometry": {"type": "Point", "coordinates": [-123.02158, 38.811263]}, "properties": {"permit_year": 2018, "permit_address": "537 N. Cloverdale Blvd.", "permit_units": 1.0, "permit_category": "SFD"}}, {"type": "Feature", "geometry": {"type": "Point", "coordinates": [-123.025689, 38.813235]}, "properties": {"permit_year": 2019, "permit_address": "500 Venezia Way", "permit_units": 2.0, "permit_category": "ADU"}}, {"type": "Feature", "geometry": {"type": "Point", "coordinates": [-123.014142, 38.804824]}, "properties": {"permit_year": 2019, "permit_address": "307 Lake St", "permit_units": 1.0, "permit_category": "ADU"}}, {"type": "Feature", "geometry": {"type": "Point", "coordinates": [-123.02154, 38.811195]}, "properties": {"permit_year": 2019, "permit_address": "533 N. Cloverdale Blvd", "permit_units": 1.0, "permit_category": "SFD"}}, {"type": "Feature", "geometry": {"type": "Point", "coordinates": [-123.02713, 38.809317]}, "properties": {"permit_year": 2019, "permit_address": "225 Kerry Lane", "permit_units": 1.0, "permit_category": "ADU"}}, {"type": "Feature", "geometry": {"type": "Point", "coordinates": [-123.024222, 38.805215]}, "properties": {"permit_year": 2019, "permit_address": "615 Antonio St", "permit_units": null, "permit_category": "ADU"}}, {"type": "Feature", "geometry": {"type": "Point", "coordinates": [-123.024222, 38.805215]}, "properties": {"permit_year": 2019, "permit_address": "615 Antonio St", "permit_units": 1.0, "permit_category": "ADU"}}, {"type": "Feature", "geometry": {"type": "Point", "coordinates": [-123.017854, 38.793123]}, "properties": {"permit_year": 2019, "permit_address": "701 S. Cloverdale Blvd", "permit_units": 21.0, "permit_category": "5+"}}, {"type": "Feature", "geometry": {"type": "Point", "coordinates": [-123.017854, 38.793123]}, "properties": {"permit_year": 2019, "permit_address": "701 S. Cloverdale Blvd", "permit_units": 1.0, "permit_category": "SFD"}}, {"type": "Feature", "geometry": {"type": "Point", "coordinates": [-123.018153, 38.793696]}, "properties": {"permit_year": 2019, "permit_address": "669 S. Cloverdale Blvd", "permit_units": 0.0, "permit_category": "SFD"}}]}